[{"ID":"WF200011","District":"중구","Value":944.8712818,"Status":"참","Latitude":37.5636559,"Longitude":126.9975097},{"ID":"YC170106","District":"양천구","Value":944.3755671,"Status":"참","Latitude":37.5171,"Longitude":126.8663},{"ID":"GA070017","District":"관악구","Value":944.3226639,"Status":"참","Latitude":37.4782,"Longitude":126.9518},{"ID":"WF160019","District":"마포구","Value":943.2496015,"Status":"참","Latitude":37.566571,"Longitude":126.9015317},{"ID":"NW160054","District":"노원구","Value":943.2489941,"Status":"참","Latitude":37.654,"Longitude":127.0567},{"ID":"YDP000020","District":"영등포구","Value":941.8999997,"Status":"참","Latitude":37.5262,"Longitude":126.8959},{"ID":"WF110050","District":"중구","Value":940.7450882,"Status":"참","Latitude":37.5636559,"Longitude":126.9975097},{"ID":"WF181055","District":"중랑구","Value":940.7444665,"Status":"참","Latitude":37.6063,"Longitude":127.093},{"ID":"NW160058","District":"노원구","Value":940.67823,"Status":"참","Latitude":37.654,"Longitude":127.0567},{"ID":"SB020046","District":"성북구","Value":940.0494264,"Status":"참","Latitude":37.59,"Longitude":127.0165},{"ID":"SC000057","District":"서초구","Value":939.3810287,"Status":"참","Latitude":37.4835,"Longitude":127.0322},{"ID":"WF171803","District":"금천구","Value":939.3342503,"Status":"참","Latitude":37.4565,"Longitude":126.8954},{"ID":"YC010002","District":"양천구","Value":939.2944648,"Status":"참","Latitude":37.5171,"Longitude":126.8663},{"ID":"JG000043","District":"중구","Value":938.1200768,"Status":"참","Latitude":37.5636559,"Longitude":126.9975097},{"ID":"YS000031","District":"용산구","Value":936.0866021,"Status":"참","Latitude":37.5323,"Longitude":126.99},{"ID":"EP070010","District":"은평구","Value":936.0290514,"Status":"참","Latitude":37.6024,"Longitude":126.9293},{"ID":"GA070045","District":"관악구","Value":935.1000683,"Status":"참","Latitude":37.4782,"Longitude":126.9518},{"ID":"YC170098","District":"양천구","Value":934.9346449,"Status":"참","Latitude":37.5171,"Longitude":126.8663},{"ID":"YC150004","District":"양천구","Value":934.1094407,"Status":"참","Latitude":37.5171,"Longitude":126.8663},{"ID":"WF160020","District":"마포구","Value":933.5417966,"Status":"참","Latitude":37.566571,"Longitude":126.9015317},{"ID":"WF181322","District":"서초구","Value":931.0426534,"Status":"참","Latitude":37.4835,"Longitude":127.0322},{"ID":"WF171314","District":"성북구","Value":930.3947225,"Status":"참","Latitude":37.59,"Longitude":127.0165},{"ID":"GS150011","District":"강서구","Value":929.0683919,"Status":"참","Latitude":37.5509,"Longitude":126.8497},{"ID":"WF170008","District":"중구","Value":927.2748344,"Status":"참","Latitude":37.5636559,"Longitude":126.9975097},{"ID":"NW160019","District":"노원구","Value":926.2743509,"Status":"참","Latitude":37.654,"Longitude":127.0567},{"ID":"GB110026","District":"강북구","Value":925.5383568,"Status":"참","Latitude":37.6395,"Longitude":127.0255},{"ID":"WN000660","District":"도봉구","Value":925.3246343,"Status":"참","Latitude":37.6686,"Longitude":127.0466},{"ID":"WF110021","District":"마포구","Value":924.9270417,"Status":"참","Latitude":37.566571,"Longitude":126.9015317},{"ID":"SD000011","District":"성동구","Value":923.3884196,"Status":"참","Latitude":37.5635,"Longitude":127.0365},{"ID":"WF120403","District":"중구","Value":921.233429,"Status":"참","Latitude":37.5636559,"Longitude":126.9975097},{"ID":"EP000023","District":"은평구","Value":919.2731539,"Status":"참","Latitude":37.6024,"Longitude":126.9293},{"ID":"SDM040005","District":"서대문구","Value":916.3463212,"Status":"참","Latitude":37.5790747,"Longitude":126.9367861},{"ID":"GS100014","District":"강서구","Value":916.0724749,"Status":"참","Latitude":37.5509,"Longitude":126.8497},{"ID":"JG000002","District":"중구","Value":915.3922459,"Status":"참","Latitude":37.5636559,"Longitude":126.9975097},{"ID":"YS000011","District":"용산구","Value":914.4654147,"Status":"참","Latitude":37.5323,"Longitude":126.99},{"ID":"GA110002","District":"관악구","Value":913.8678742,"Status":"참","Latitude":37.4782,"Longitude":126.9518},{"ID":"DDM000011","District":"동대문구","Value":912.9528962,"Status":"참","Latitude":37.5741982,"Longitude":127.0395092},{"ID":"GJ100017","District":"광진구","Value":912.2126338,"Status":"참","Latitude":37.5384,"Longitude":127.0828},{"ID":"WF190854","District":"양천구","Value":912.0700601,"Status":"참","Latitude":37.5171,"Longitude":126.8663},{"ID":"GA070033","District":"관악구","Value":909.7531464,"Status":"참","Latitude":37.4782,"Longitude":126.9518},{"ID":"EP000139","District":"은평구","Value":908.7011822,"Status":"참","Latitude":37.6024,"Longitude":126.9293},{"ID":"GB110002","District":"강북구","Value":908.1361484,"Status":"참","Latitude":37.6395,"Longitude":127.0255},{"ID":"WF141978","District":"동작구","Value":907.1539492,"Status":"참","Latitude":37.5120999,"Longitude":126.9395},{"ID":"YS060001","District":"용산구","Value":906.998778,"Status":"참","Latitude":37.5323,"Longitude":126.99},{"ID":"YC170024","District":"양천구","Value":906.2881223,"Status":"참","Latitude":37.5171,"Longitude":126.8663},{"ID":"WF200138","District":"서초구","Value":904.5495781,"Status":"참","Latitude":37.4835,"Longitude":127.0322},{"ID":"WF110117","District":"중구","Value":902.276228,"Status":"참","Latitude":37.5636559,"Longitude":126.9975097},{"ID":"NW160015","District":"노원구","Value":902.1072807,"Status":"참","Latitude":37.654,"Longitude":127.0567},{"ID":"WF190373","District":"금천구","Value":901.9309169,"Status":"참","Latitude":37.4565,"Longitude":126.8954},{"ID":"WF181094","District":"도봉구","Value":901.7415877,"Status":"참","Latitude":37.6686,"Longitude":127.0466},{"ID":"YC160001","District":"양천구","Value":901.4529504,"Status":"참","Latitude":37.5171,"Longitude":126.8663},{"ID":"SIGMUL025","District":"강서구","Value":900.3475472,"Status":"참","Latitude":37.5509,"Longitude":126.8497},{"ID":"GJ060001","District":"광진구","Value":900.0358536,"Status":"참","Latitude":37.5384,"Longitude":127.0828},{"ID":"WF142032","District":"마포구","Value":899.971842,"Status":"참","Latitude":37.566571,"Longitude":126.9015317},{"ID":"GA070031","District":"관악구","Value":898.8181612,"Status":"참","Latitude":37.4782,"Longitude":126.9518},{"ID":"SD000163","District":"성동구","Value":897.72896,"Status":"참","Latitude":37.5635,"Longitude":127.0365},{"ID":"GD130125","District":"강동구","Value":897.3251355,"Status":"참","Latitude":37.53,"Longitude":127.1237},{"ID":"WF170045","District":"중구","Value":897.0902177,"Status":"참","Latitude":37.5636559,"Longitude":126.9975097},{"ID":"WF160071","District":"마포구","Value":896.2296813,"Status":"참","Latitude":37.566571,"Longitude":126.9015317},{"ID":"YC170051","District":"양천구","Value":895.9982122,"Status":"참","Latitude":37.5171,"Longitude":126.8663},{"ID":"WF181327","District":"서초구","Value":895.5105907,"Status":"참","Latitude":37.4835,"Longitude":127.0322},{"ID":"DDM000042","District":"동대문구","Value":895.1405966,"Status":"참","Latitude":37.5741982,"Longitude":127.0395092},{"ID":"WF120410","District":"중구","Value":895.1310243,"Status":"참","Latitude":37.5636559,"Longitude":126.9975097},{"ID":"YC170042","District":"양천구","Value":894.4838513,"Status":"참","Latitude":37.5171,"Longitude":126.8663},{"ID":"YC120036","District":"양천구","Value":893.7628526,"Status":"참","Latitude":37.5171,"Longitude":126.8663},{"ID":"EP000048","District":"은평구","Value":893.5190487,"Status":"참","Latitude":37.6024,"Longitude":126.9293},{"ID":"YDP000008","District":"영등포구","Value":892.633639,"Status":"참","Latitude":37.5262,"Longitude":126.8959},{"ID":"WF191116","District":"중구","Value":891.3869189,"Status":"참","Latitude":37.5636559,"Longitude":126.9975097},{"ID":"NW160016","District":"노원구","Value":891.0705979,"Status":"참","Latitude":37.654,"Longitude":127.0567},{"ID":"SC000051","District":"서초구","Value":890.9319094,"Status":"참","Latitude":37.4835,"Longitude":127.0322},{"ID":"WN003820","District":"성동구","Value":889.8900866,"Status":"참","Latitude":37.5635,"Longitude":127.0365},{"ID":"NW130003","District":"노원구","Value":889.8778091,"Status":"참","Latitude":37.654,"Longitude":127.0567},{"ID":"WF205106","District":"중구","Value":888.8422478,"Status":"참","Latitude":37.5636559,"Longitude":126.9975097},{"ID":"WN000680","District":"도봉구","Value":888.6145827,"Status":"참","Latitude":37.6686,"Longitude":127.0466},{"ID":"WF140030","District":"동대문구","Value":887.0213352,"Status":"참","Latitude":37.5741982,"Longitude":127.0395092},{"ID":"GN060036","District":"강남구","Value":883.3523339,"Status":"참","Latitude":37.5177,"Longitude":127.0473},{"ID":"WF201626","District":"영등포구","Value":883.1537535,"Status":"참","Latitude":37.5262,"Longitude":126.8959},{"ID":"WF132227","District":"용산구","Value":883.0153766,"Status":"참","Latitude":37.5323,"Longitude":126.99},{"ID":"WF141263","District":"강북구","Value":882.8128887,"Status":"참","Latitude":37.6395,"Longitude":127.0255},{"ID":"WN003858","District":"성동구","Value":882.1969238,"Status":"참","Latitude":37.5635,"Longitude":127.0365},{"ID":"YC040006","District":"양천구","Value":881.7964153,"Status":"참","Latitude":37.5171,"Longitude":126.8663},{"ID":"GD130047","District":"강동구","Value":881.2328895,"Status":"참","Latitude":37.53,"Longitude":127.1237},{"ID":"SC000049","District":"서초구","Value":880.2799421,"Status":"참","Latitude":37.4835,"Longitude":127.0322},{"ID":"EP000026","District":"은평구","Value":880.1255264,"Status":"참","Latitude":37.6024,"Longitude":126.9293},{"ID":"JG170005","District":"중구","Value":877.6342508,"Status":"참","Latitude":37.5636559,"Longitude":126.9975097},{"ID":"WN003851","District":"성동구","Value":877.5751833,"Status":"참","Latitude":37.5635,"Longitude":127.0365},{"ID":"SP260059","District":"송파구","Value":877.4489985,"Status":"참","Latitude":37.5145,"Longitude":127.1058},{"ID":"WF190144","District":"강서구","Value":877.0245307,"Status":"참","Latitude":37.5509,"Longitude":126.8497},{"ID":"WF190393","District":"노원구","Value":876.848544,"Status":"참","Latitude":37.654,"Longitude":127.0567},{"ID":"DDM000020","District":"동대문구","Value":876.8472091,"Status":"참","Latitude":37.5741982,"Longitude":127.0395092},{"ID":"YC170071","District":"양천구","Value":874.3761395,"Status":"참","Latitude":37.5171,"Longitude":126.8663},{"ID":"WF161663","District":"금천구","Value":874.1991784,"Status":"참","Latitude":37.4565,"Longitude":126.8954},{"ID":"SC000029","District":"서초구","Value":874.1045312,"Status":"참","Latitude":37.4835,"Longitude":127.0322},{"ID":"WF120292","District":"중구","Value":873.8907546,"Status":"참","Latitude":37.5636559,"Longitude":126.9975097},{"ID":"SC000071","District":"서초구","Value":873.1435016,"Status":"참","Latitude":37.4835,"Longitude":127.0322},{"ID":"YDP000049","District":"영등포구","Value":871.3495735,"Status":"참","Latitude":37.5262,"Longitude":126.8959},{"ID":"SIGMUL150","District":"강서구","Value":870.4832196,"Status":"참","Latitude":37.5509,"Longitude":126.8497},{"ID":"NW030002","District":"노원구","Value":866.348919,"Status":"참","Latitude":37.654,"Longitude":127.0567},{"ID":"GN070006","District":"강남구","Value":866.2995802,"Status":"참","Latitude":37.5177,"Longitude":127.0473},{"ID":"SC000037","District":"서초구","Value":865.1344431,"Status":"참","Latitude":37.4835,"Longitude":127.0322},{"ID":"SC000068","District":"서초구","Value":864.9797218,"Status":"참","Latitude":37.4835,"Longitude":127.0322},{"ID":"WF171302","District":"성북구","Value":864.6860726,"Status":"참","Latitude":37.59,"Longitude":127.0165},{"ID":"YC170089","District":"양천구","Value":864.5760839,"Status":"참","Latitude":37.5171,"Longitude":126.8663},{"ID":"WF110074","District":"중구","Value":863.6964593,"Status":"참","Latitude":37.5636559,"Longitude":126.9975097},{"ID":"GB110005","District":"강북구","Value":863.0085673,"Status":"참","Latitude":37.6395,"Longitude":127.0255},{"ID":"EP020020","District":"은평구","Value":862.7553501,"Status":"참","Latitude":37.6024,"Longitude":126.9293},{"ID":"WF121165","District":"강서구","Value":862.5448947,"Status":"참","Latitude":37.5509,"Longitude":126.8497},{"ID":"YS000021","District":"용산구","Value":860.324833,"Status":"참","Latitude":37.5323,"Longitude":126.99},{"ID":"YDP050002","District":"영등포구","Value":860.2240098,"Status":"참","Latitude":37.5262,"Longitude":126.8959},{"ID":"NW160001","District":"노원구","Value":860.1232172,"Status":"참","Latitude":37.654,"Longitude":127.0567},{"ID":"YC040003","District":"양천구","Value":859.394688,"Status":"참","Latitude":37.5171,"Longitude":126.8663},{"ID":"YC170092","District":"양천구","Value":859.3645667,"Status":"참","Latitude":37.5171,"Longitude":126.8663},{"ID":"SC000025","District":"서초구","Value":858.8220503,"Status":"참","Latitude":37.4835,"Longitude":127.0322},{"ID":"YDP000016","District":"영등포구","Value":858.746742,"Status":"참","Latitude":37.5262,"Longitude":126.8959},{"ID":"WF120226","District":"은평구","Value":855.9805661,"Status":"참","Latitude":37.6024,"Longitude":126.9293},{"ID":"YC170076","District":"양천구","Value":855.6004289,"Status":"참","Latitude":37.5171,"Longitude":126.8663},{"ID":"WF205115","District":"중구","Value":855.316129,"Status":"참","Latitude":37.5636559,"Longitude":126.9975097},{"ID":"WF2020109","District":"동대문구","Value":851.9341632,"Status":"참","Latitude":37.5741982,"Longitude":127.0395092},{"ID":"SB020034","District":"성북구","Value":851.3289555,"Status":"참","Latitude":37.59,"Longitude":127.0165},{"ID":"YC170050","District":"양천구","Value":850.9251892,"Status":"참","Latitude":37.5171,"Longitude":126.8663},{"ID":"WF120427","District":"중구","Value":850.8904892,"Status":"참","Latitude":37.5636559,"Longitude":126.9975097},{"ID":"WN003877","District":"성동구","Value":849.7918436,"Status":"참","Latitude":37.5635,"Longitude":127.0365},{"ID":"GS180117","District":"강서구","Value":849.4539482,"Status":"참","Latitude":37.5509,"Longitude":126.8497},{"ID":"SB020044","District":"성북구","Value":849.4231354,"Status":"참","Latitude":37.59,"Longitude":127.0165},{"ID":"JG000061","District":"중구","Value":849.1583902,"Status":"참","Latitude":37.5636559,"Longitude":126.9975097},{"ID":"YS090001","District":"용산구","Value":848.9158918,"Status":"참","Latitude":37.5323,"Longitude":126.99},{"ID":"YC170101","District":"양천구","Value":848.4860258,"Status":"참","Latitude":37.5171,"Longitude":126.8663},{"ID":"WF110164","District":"중구","Value":847.888016,"Status":"참","Latitude":37.5636559,"Longitude":126.9975097},{"ID":"GS170044","District":"강서구","Value":847.8684675,"Status":"참","Latitude":37.5509,"Longitude":126.8497},{"ID":"SB140010","District":"성북구","Value":847.7462258,"Status":"참","Latitude":37.59,"Longitude":127.0165},{"ID":"WF171787","District":"금천구","Value":847.6621014,"Status":"참","Latitude":37.4565,"Longitude":126.8954},{"ID":"WF171232","District":"성동구","Value":847.0532816,"Status":"참","Latitude":37.5635,"Longitude":127.0365},{"ID":"WN003907","District":"성동구","Value":846.6937369,"Status":"참","Latitude":37.5635,"Longitude":127.0365},{"ID":"SB020039","District":"성북구","Value":845.9329017,"Status":"참","Latitude":37.59,"Longitude":127.0165},{"ID":"YS000015","District":"용산구","Value":845.5518559,"Status":"참","Latitude":37.5323,"Longitude":126.99},{"ID":"WF110095","District":"중구","Value":845.5442422,"Status":"참","Latitude":37.5636559,"Longitude":126.9975097},{"ID":"YS000047","District":"용산구","Value":845.2204181,"Status":"참","Latitude":37.5323,"Longitude":126.99},{"ID":"WF181036","District":"성동구","Value":844.2724268,"Status":"참","Latitude":37.5635,"Longitude":127.0365},{"ID":"YS000061","District":"용산구","Value":843.2776229,"Status":"참","Latitude":37.5323,"Longitude":126.99},{"ID":"WN000635","District":"도봉구","Value":842.9595298,"Status":"참","Latitude":37.6686,"Longitude":127.0466},{"ID":"WF190893","District":"영등포구","Value":842.7265568,"Status":"참","Latitude":37.5262,"Longitude":126.8959},{"ID":"WF191108","District":"중구","Value":842.6474462,"Status":"참","Latitude":37.5636559,"Longitude":126.9975097},{"ID":"WF190227","District":"광진구","Value":842.2272163,"Status":"참","Latitude":37.5384,"Longitude":127.0828},{"ID":"WF190579","District":"동작구","Value":840.3281422,"Status":"참","Latitude":37.5120999,"Longitude":126.9395},{"ID":"WF190957","District":"용산구","Value":840.0147609,"Status":"참","Latitude":37.5323,"Longitude":126.99},{"ID":"WF142431","District":"용산구","Value":839.4374635,"Status":"참","Latitude":37.5323,"Longitude":126.99},{"ID":"WF171799","District":"금천구","Value":838.8502289,"Status":"참","Latitude":37.4565,"Longitude":126.8954},{"ID":"WF181272","District":"금천구","Value":838.1610864,"Status":"참","Latitude":37.4565,"Longitude":126.8954},{"ID":"WF190450","District":"노원구","Value":838.0286769,"Status":"참","Latitude":37.654,"Longitude":127.0567},{"ID":"NW040005","District":"노원구","Value":837.8888993,"Status":"참","Latitude":37.654,"Longitude":127.0567},{"ID":"WF191180","District":"중랑구","Value":837.1311268,"Status":"참","Latitude":37.6063,"Longitude":127.093},{"ID":"GC060021","District":"금천구","Value":836.8765247,"Status":"참","Latitude":37.4565,"Longitude":126.8954},{"ID":"GR050004","District":"구로구","Value":836.0597264,"Status":"참","Latitude":37.4951999,"Longitude":126.8877},{"ID":"GA200004","District":"관악구","Value":835.1328209,"Status":"참","Latitude":37.4782,"Longitude":126.9518},{"ID":"GS040059","District":"강서구","Value":835.0951005,"Status":"참","Latitude":37.5509,"Longitude":126.8497},{"ID":"SD000435","District":"성동구","Value":833.6728594,"Status":"참","Latitude":37.5635,"Longitude":127.0365},{"ID":"MP020045","District":"마포구","Value":833.1375738,"Status":"참","Latitude":37.566571,"Longitude":126.9015317},{"ID":"WF205102","District":"중구","Value":833.0145635,"Status":"참","Latitude":37.5636559,"Longitude":126.9975097},{"ID":"WF171311","District":"성북구","Value":832.9822203,"Status":"참","Latitude":37.59,"Longitude":127.0165},{"ID":"WF191217","District":"용산구","Value":832.9592833,"Status":"참","Latitude":37.5323,"Longitude":126.99},{"ID":"WF151867","District":"마포구","Value":832.6457194,"Status":"참","Latitude":37.566571,"Longitude":126.9015317},{"ID":"YC030006","District":"양천구","Value":831.3578658,"Status":"참","Latitude":37.5171,"Longitude":126.8663},{"ID":"SIGMUL026","District":"강서구","Value":830.6066126,"Status":"참","Latitude":37.5509,"Longitude":126.8497},{"ID":"GS060012","District":"강서구","Value":830.5447881,"Status":"참","Latitude":37.5509,"Longitude":126.8497},{"ID":"DDM000045","District":"동대문구","Value":830.4737017,"Status":"참","Latitude":37.5741982,"Longitude":127.0395092},{"ID":"WF120378","District":"중구","Value":829.0070315,"Status":"참","Latitude":37.5636559,"Longitude":126.9975097},{"ID":"YC080014","District":"양천구","Value":828.3683584,"Status":"참","Latitude":37.5171,"Longitude":126.8663},{"ID":"WF191038","District":"종로구","Value":827.6292998,"Status":"참","Latitude":37.5806949,"Longitude":126.9827989},{"ID":"DDM000043","District":"동대문구","Value":826.8811986,"Status":"참","Latitude":37.5741982,"Longitude":127.0395092},{"ID":"GR030053","District":"구로구","Value":825.4562103,"Status":"참","Latitude":37.4951999,"Longitude":126.8877},{"ID":"WF200054","District":"중구","Value":824.8147502,"Status":"참","Latitude":37.5636559,"Longitude":126.9975097},{"ID":"WF161690","District":"금천구","Value":824.6898401,"Status":"참","Latitude":37.4565,"Longitude":126.8954},{"ID":"YC050016","District":"양천구","Value":823.6837856,"Status":"참","Latitude":37.5171,"Longitude":126.8663},{"ID":"SB090005","District":"성북구","Value":822.819028,"Status":"참","Latitude":37.59,"Longitude":127.0165},{"ID":"WF161687","District":"금천구","Value":822.6960574,"Status":"참","Latitude":37.4565,"Longitude":126.8954},{"ID":"YC050017","District":"양천구","Value":821.9565863,"Status":"참","Latitude":37.5171,"Longitude":126.8663},{"ID":"SC000007","District":"서초구","Value":821.5360857,"Status":"참","Latitude":37.4835,"Longitude":127.0322},{"ID":"GN130001","District":"강남구","Value":821.5338077,"Status":"참","Latitude":37.5177,"Longitude":127.0473},{"ID":"WF190033","District":"강남구","Value":821.1819834,"Status":"참","Latitude":37.5177,"Longitude":127.0473},{"ID":"SD000034","District":"성동구","Value":821.1049708,"Status":"참","Latitude":37.5635,"Longitude":127.0365},{"ID":"YC140001","District":"양천구","Value":820.6576158,"Status":"참","Latitude":37.5171,"Longitude":126.8663},{"ID":"GS180129","District":"강서구","Value":820.1295141,"Status":"참","Latitude":37.5509,"Longitude":126.8497},{"ID":"DDM000004","District":"동대문구","Value":818.7815186,"Status":"참","Latitude":37.5741982,"Longitude":127.0395092},{"ID":"GS180109","District":"강서구","Value":818.3989697,"Status":"참","Latitude":37.5509,"Longitude":126.8497},{"ID":"YC170011","District":"양천구","Value":818.3431838,"Status":"참","Latitude":37.5171,"Longitude":126.8663},{"ID":"WF120421","District":"중구","Value":817.842539,"Status":"참","Latitude":37.5636559,"Longitude":126.9975097},{"ID":"GN070082","District":"강남구","Value":817.7787129,"Status":"참","Latitude":37.5177,"Longitude":127.0473},{"ID":"YC170068","District":"양천구","Value":817.1456307,"Status":"참","Latitude":37.5171,"Longitude":126.8663},{"ID":"YC130007","District":"양천구","Value":816.7789991,"Status":"참","Latitude":37.5171,"Longitude":126.8663},{"ID":"GS100041","District":"강서구","Value":816.1487306,"Status":"참","Latitude":37.5509,"Longitude":126.8497},{"ID":"YC170021","District":"양천구","Value":814.2630335,"Status":"참","Latitude":37.5171,"Longitude":126.8663},{"ID":"DDM000018","District":"동대문구","Value":813.9037035,"Status":"참","Latitude":37.5741982,"Longitude":127.0395092},{"ID":"WN000636","District":"도봉구","Value":813.3501891,"Status":"참","Latitude":37.6686,"Longitude":127.0466},{"ID":"NW090001","District":"노원구","Value":812.873944,"Status":"참","Latitude":37.654,"Longitude":127.0567},{"ID":"EP000113","District":"은평구","Value":811.1631684,"Status":"참","Latitude":37.6024,"Longitude":126.9293},{"ID":"WF120064","District":"서초구","Value":810.5482862,"Status":"참","Latitude":37.4835,"Longitude":127.0322},{"ID":"YC060002","District":"양천구","Value":809.7593429,"Status":"참","Latitude":37.5171,"Longitude":126.8663},{"ID":"SP260028","District":"송파구","Value":808.9545222,"Status":"참","Latitude":37.5145,"Longitude":127.1058},{"ID":"GA050002","District":"관악구","Value":808.7059718,"Status":"참","Latitude":37.4782,"Longitude":126.9518},{"ID":"GD130076","District":"강동구","Value":808.448118,"Status":"참","Latitude":37.53,"Longitude":127.1237},{"ID":"DDM000012","District":"동대문구","Value":808.2904616,"Status":"참","Latitude":37.5741982,"Longitude":127.0395092},{"ID":"YC170099","District":"양천구","Value":808.1253748,"Status":"참","Latitude":37.5171,"Longitude":126.8663},{"ID":"YC080015","District":"양천구","Value":807.9044212,"Status":"참","Latitude":37.5171,"Longitude":126.8663},{"ID":"WF205108","District":"중구","Value":807.8790344,"Status":"참","Latitude":37.5636559,"Longitude":126.9975097},{"ID":"GR150016","District":"구로구","Value":807.7740252,"Status":"참","Latitude":37.4951999,"Longitude":126.8877},{"ID":"GS040025","District":"강서구","Value":807.0654105,"Status":"참","Latitude":37.5509,"Longitude":126.8497},{"ID":"WF110127","District":"중구","Value":806.9960956,"Status":"참","Latitude":37.5636559,"Longitude":126.9975097},{"ID":"GB120002","District":"강북구","Value":805.5630149,"Status":"참","Latitude":37.6395,"Longitude":127.0255},{"ID":"WF190694","District":"서대문구","Value":805.2854379,"Status":"참","Latitude":37.5790747,"Longitude":126.9367861},{"ID":"WF110061","District":"중구","Value":804.2757406,"Status":"참","Latitude":37.5636559,"Longitude":126.9975097},{"ID":"SIGMUL029","District":"강서구","Value":804.2075072,"Status":"참","Latitude":37.5509,"Longitude":126.8497},{"ID":"WF201256","District":"구로구","Value":803.469818,"Status":"참","Latitude":37.4951999,"Longitude":126.8877},{"ID":"WF191170","District":"중랑구","Value":803.0416034,"Status":"참","Latitude":37.6063,"Longitude":127.093},{"ID":"WF201060","District":"강동구","Value":802.939628,"Status":"참","Latitude":37.53,"Longitude":127.1237},{"ID":"WF140048","District":"은평구","Value":802.6061735,"Status":"참","Latitude":37.6024,"Longitude":126.9293},{"ID":"YC130001","District":"양천구","Value":801.6392783,"Status":"참","Latitude":37.5171,"Longitude":126.8663},{"ID":"GA160003","District":"관악구","Value":801.4489598,"Status":"참","Latitude":37.4782,"Longitude":126.9518},{"ID":"GA070050","District":"관악구","Value":801.3680047,"Status":"참","Latitude":37.4782,"Longitude":126.9518},{"ID":"WF160057","District":"마포구","Value":800.1142528,"Status":"참","Latitude":37.566571,"Longitude":126.9015317},{"ID":"YC170067","District":"양천구","Value":799.0656393,"Status":"참","Latitude":37.5171,"Longitude":126.8663},{"ID":"NW160060","District":"노원구","Value":798.6443124,"Status":"참","Latitude":37.654,"Longitude":127.0567},{"ID":"WF181183","District":"은평구","Value":796.5739452,"Status":"참","Latitude":37.6024,"Longitude":126.9293},{"ID":"GB110024","District":"강북구","Value":796.1002459,"Status":"참","Latitude":37.6395,"Longitude":127.0255},{"ID":"YS000057","District":"용산구","Value":795.5455381,"Status":"참","Latitude":37.5323,"Longitude":126.99},{"ID":"WF200102","District":"중구","Value":795.1997406,"Status":"참","Latitude":37.5636559,"Longitude":126.9975097},{"ID":"WF190010","District":"강남구","Value":795.1201317,"Status":"참","Latitude":37.5177,"Longitude":127.0473},{"ID":"WF142044","District":"마포구","Value":795.0293295,"Status":"참","Latitude":37.566571,"Longitude":126.9015317},{"ID":"GB070006","District":"강북구","Value":794.3784681,"Status":"참","Latitude":37.6395,"Longitude":127.0255},{"ID":"GA070005","District":"관악구","Value":794.2508304,"Status":"참","Latitude":37.4782,"Longitude":126.9518},{"ID":"SC030001","District":"서초구","Value":794.0395401,"Status":"참","Latitude":37.4835,"Longitude":127.0322},{"ID":"GN070066","District":"강남구","Value":793.8727206,"Status":"참","Latitude":37.5177,"Longitude":127.0473},{"ID":"GA160002","District":"관악구","Value":792.9699469,"Status":"참","Latitude":37.4782,"Longitude":126.9518},{"ID":"GN070009","District":"강남구","Value":792.4321971,"Status":"참","Latitude":37.5177,"Longitude":127.0473},{"ID":"YC160011","District":"양천구","Value":791.1796233,"Status":"참","Latitude":37.5171,"Longitude":126.8663},{"ID":"DDM000009","District":"동대문구","Value":790.2240585,"Status":"참","Latitude":37.5741982,"Longitude":127.0395092},{"ID":"SB160002","District":"성북구","Value":789.8963083,"Status":"참","Latitude":37.59,"Longitude":127.0165},{"ID":"YS040010","District":"용산구","Value":789.1652881,"Status":"참","Latitude":37.5323,"Longitude":126.99},{"ID":"DDM000036","District":"동대문구","Value":787.5470961,"Status":"참","Latitude":37.5741982,"Longitude":127.0395092},{"ID":"SC000038","District":"서초구","Value":785.245933,"Status":"참","Latitude":37.4835,"Longitude":127.0322},{"ID":"WF110184","District":"중구","Value":784.7041675,"Status":"참","Latitude":37.5636559,"Longitude":126.9975097},{"ID":"YC170001","District":"양천구","Value":784.3668112,"Status":"참","Latitude":37.5171,"Longitude":126.8663},{"ID":"JG100001","District":"중구","Value":784.0772589,"Status":"참","Latitude":37.5636559,"Longitude":126.9975097},{"ID":"SB020048","District":"성북구","Value":784.0343659,"Status":"참","Latitude":37.59,"Longitude":127.0165},{"ID":"GS040036","District":"강서구","Value":783.8963197,"Status":"참","Latitude":37.5509,"Longitude":126.8497},{"ID":"WF181326","District":"서초구","Value":783.7389237,"Status":"참","Latitude":37.4835,"Longitude":127.0322},{"ID":"GN070060","District":"강남구","Value":782.9574097,"Status":"참","Latitude":37.5177,"Longitude":127.0473},{"ID":"WF205126","District":"중구","Value":782.572871,"Status":"참","Latitude":37.5636559,"Longitude":126.9975097},{"ID":"GJ100039","District":"광진구","Value":781.8335038,"Status":"참","Latitude":37.5384,"Longitude":127.0828},{"ID":"WF201086","District":"강동구","Value":781.7904324,"Status":"참","Latitude":37.53,"Longitude":127.1237},{"ID":"NW160063","District":"노원구","Value":781.1632073,"Status":"참","Latitude":37.654,"Longitude":127.0567},{"ID":"WN003856","District":"성동구","Value":781.148295,"Status":"참","Latitude":37.5635,"Longitude":127.0365},{"ID":"DB040012","District":"도봉구","Value":780.8196049,"Status":"참","Latitude":37.6686,"Longitude":127.0466},{"ID":"DDM000019","District":"동대문구","Value":779.4551842,"Status":"참","Latitude":37.5741982,"Longitude":127.0395092},{"ID":"YC170062","District":"양천구","Value":778.6125129,"Status":"참","Latitude":37.5171,"Longitude":126.8663},{"ID":"NW140001","District":"노원구","Value":778.607276,"Status":"참","Latitude":37.654,"Longitude":127.0567},{"ID":"YC170104","District":"양천구","Value":778.5520583,"Status":"참","Latitude":37.5171,"Longitude":126.8663},{"ID":"WF200079","District":"중구","Value":778.1903676,"Status":"참","Latitude":37.5636559,"Longitude":126.9975097},{"ID":"NW010016","District":"노원구","Value":777.5617304,"Status":"참","Latitude":37.654,"Longitude":127.0567},{"ID":"GA130004","District":"관악구","Value":777.4255764,"Status":"참","Latitude":37.4782,"Longitude":126.9518},{"ID":"GD130024","District":"강동구","Value":777.3967833,"Status":"참","Latitude":37.53,"Longitude":127.1237},{"ID":"YC070008","District":"양천구","Value":777.2728232,"Status":"참","Latitude":37.5171,"Longitude":126.8663},{"ID":"DB030010","District":"도봉구","Value":777.1825855,"Status":"참","Latitude":37.6686,"Longitude":127.0466},{"ID":"GB020001","District":"강북구","Value":777.0018324,"Status":"참","Latitude":37.6395,"Longitude":127.0255},{"ID":"WN003817","District":"성동구","Value":776.987544,"Status":"참","Latitude":37.5635,"Longitude":127.0365},{"ID":"YC170041","District":"양천구","Value":776.9143452,"Status":"참","Latitude":37.5171,"Longitude":126.8663},{"ID":"YC010001","District":"양천구","Value":776.7787175,"Status":"참","Latitude":37.5171,"Longitude":126.8663},{"ID":"YC130003","District":"양천구","Value":776.6328456,"Status":"참","Latitude":37.5171,"Longitude":126.8663},{"ID":"WF201931","District":"동대문구","Value":776.3370615,"Status":"참","Latitude":37.5741982,"Longitude":127.0395092},{"ID":"YS000043","District":"용산구","Value":775.9830931,"Status":"참","Latitude":37.5323,"Longitude":126.99},{"ID":"WF110054","District":"중구","Value":775.8709287,"Status":"참","Latitude":37.5636559,"Longitude":126.9975097},{"ID":"WF120220","District":"은평구","Value":775.3188266,"Status":"참","Latitude":37.6024,"Longitude":126.9293},{"ID":"YDP140001","District":"영등포구","Value":775.1532692,"Status":"참","Latitude":37.5262,"Longitude":126.8959},{"ID":"WF205109","District":"중구","Value":774.8302614,"Status":"참","Latitude":37.5636559,"Longitude":126.9975097},{"ID":"SB020016","District":"성북구","Value":774.5059019,"Status":"참","Latitude":37.59,"Longitude":127.0165},{"ID":"YC170063","District":"양천구","Value":773.6364544,"Status":"참","Latitude":37.5171,"Longitude":126.8663},{"ID":"SB020032","District":"성북구","Value":773.22136,"Status":"참","Latitude":37.59,"Longitude":127.0165},{"ID":"GS140032","District":"강서구","Value":772.8808149,"Status":"참","Latitude":37.5509,"Longitude":126.8497},{"ID":"YC170097","District":"양천구","Value":772.7583336,"Status":"참","Latitude":37.5171,"Longitude":126.8663},{"ID":"SD000061","District":"성동구","Value":772.6561985,"Status":"참","Latitude":37.5635,"Longitude":127.0365},{"ID":"YC120009","District":"양천구","Value":771.7104908,"Status":"참","Latitude":37.5171,"Longitude":126.8663},{"ID":"WF2020105","District":"동대문구","Value":771.6826024,"Status":"참","Latitude":37.5741982,"Longitude":127.0395092},{"ID":"WF160013","District":"마포구","Value":771.2578366,"Status":"참","Latitude":37.566571,"Longitude":126.9015317},{"ID":"WN003876","District":"성동구","Value":771.1310054,"Status":"참","Latitude":37.5635,"Longitude":127.0365},{"ID":"WF120451","District":"중구","Value":770.9296697,"Status":"참","Latitude":37.5636559,"Longitude":126.9975097},{"ID":"WF190171","District":"강서구","Value":770.2497512,"Status":"참","Latitude":37.5509,"Longitude":126.8497},{"ID":"GB070002","District":"강북구","Value":769.3391776,"Status":"참","Latitude":37.6395,"Longitude":127.0255},{"ID":"WN003872","District":"성동구","Value":768.885965,"Status":"참","Latitude":37.5635,"Longitude":127.0365},{"ID":"YC150001","District":"양천구","Value":768.6012537,"Status":"참","Latitude":37.5171,"Longitude":126.8663},{"ID":"YC170030","District":"양천구","Value":768.1203022,"Status":"참","Latitude":37.5171,"Longitude":126.8663},{"ID":"SIGMUL016","District":"강서구","Value":767.6916359,"Status":"참","Latitude":37.5509,"Longitude":126.8497},{"ID":"EP120003","District":"은평구","Value":766.6635561,"Status":"참","Latitude":37.6024,"Longitude":126.9293},{"ID":"GN110085","District":"강남구","Value":764.9545206,"Status":"참","Latitude":37.5177,"Longitude":127.0473},{"ID":"GA070040","District":"관악구","Value":764.305275,"Status":"참","Latitude":37.4782,"Longitude":126.9518},{"ID":"GB060002","District":"강북구","Value":763.7367252,"Status":"참","Latitude":37.6395,"Longitude":127.0255},{"ID":"YC170072","District":"양천구","Value":763.1207263,"Status":"참","Latitude":37.5171,"Longitude":126.8663},{"ID":"WF190041","District":"강남구","Value":761.8539204,"Status":"참","Latitude":37.5177,"Longitude":127.0473},{"ID":"SDM050088","District":"서대문구","Value":761.0613595,"Status":"참","Latitude":37.5790747,"Longitude":126.9367861},{"ID":"GS120018","District":"강서구","Value":761.0210522,"Status":"참","Latitude":37.5509,"Longitude":126.8497},{"ID":"SB020045","District":"성북구","Value":759.7720295,"Status":"참","Latitude":37.59,"Longitude":127.0165},{"ID":"EP000077","District":"은평구","Value":759.6595231,"Status":"참","Latitude":37.6024,"Longitude":126.9293},{"ID":"DB050015","District":"도봉구","Value":759.1149594,"Status":"참","Latitude":37.6686,"Longitude":127.0466},{"ID":"EP070027","District":"은평구","Value":757.3588852,"Status":"참","Latitude":37.6024,"Longitude":126.9293},{"ID":"WF120333","District":"중구","Value":757.1854924,"Status":"참","Latitude":37.5636559,"Longitude":126.9975097},{"ID":"EP000003","District":"은평구","Value":757.1111198,"Status":"참","Latitude":37.6024,"Longitude":126.9293},{"ID":"WF110103","District":"중구","Value":757.0551094,"Status":"참","Latitude":37.5636559,"Longitude":126.9975097},{"ID":"YC130008","District":"양천구","Value":756.3927494,"Status":"참","Latitude":37.5171,"Longitude":126.8663},{"ID":"SDM110014","District":"서대문구","Value":756.3679788,"Status":"참","Latitude":37.5790747,"Longitude":126.9367861},{"ID":"WF171781","District":"금천구","Value":756.0091395,"Status":"참","Latitude":37.4565,"Longitude":126.8954},{"ID":"MP020058","District":"마포구","Value":755.9259393,"Status":"참","Latitude":37.566571,"Longitude":126.9015317},{"ID":"GB070003","District":"강북구","Value":755.7674825,"Status":"참","Latitude":37.6395,"Longitude":127.0255},{"ID":"GN070043","District":"강남구","Value":755.5856565,"Status":"참","Latitude":37.5177,"Longitude":127.0473},{"ID":"GB030001","District":"강북구","Value":754.5356198,"Status":"참","Latitude":37.6395,"Longitude":127.0255},{"ID":"WF160069","District":"마포구","Value":754.5238554,"Status":"참","Latitude":37.566571,"Longitude":126.9015317},{"ID":"YDP180001","District":"영등포구","Value":753.7659646,"Status":"참","Latitude":37.5262,"Longitude":126.8959},{"ID":"YC160003","District":"양천구","Value":753.2499902,"Status":"참","Latitude":37.5171,"Longitude":126.8663},{"ID":"WN003875","District":"성동구","Value":753.2121739,"Status":"참","Latitude":37.5635,"Longitude":127.0365},{"ID":"JG090002","District":"중구","Value":753.1792026,"Status":"참","Latitude":37.5636559,"Longitude":126.9975097},{"ID":"YDP000036","District":"영등포구","Value":752.5955404,"Status":"참","Latitude":37.5262,"Longitude":126.8959},{"ID":"GN070086","District":"강남구","Value":752.5169654,"Status":"참","Latitude":37.5177,"Longitude":127.0473},{"ID":"WN003893","District":"성동구","Value":752.3746871,"Status":"참","Latitude":37.5635,"Longitude":127.0365},{"ID":"WF2020107","District":"동대문구","Value":751.8291456,"Status":"참","Latitude":37.5741982,"Longitude":127.0395092},{"ID":"YC060007","District":"양천구","Value":751.5825332,"Status":"참","Latitude":37.5171,"Longitude":126.8663},{"ID":"GS120055","District":"강서구","Value":751.3331774,"Status":"참","Latitude":37.5509,"Longitude":126.8497},{"ID":"GD130115","District":"강동구","Value":750.6894472,"Status":"참","Latitude":37.53,"Longitude":127.1237},{"ID":"YDP000046","District":"영등포구","Value":750.6537419,"Status":"참","Latitude":37.5262,"Longitude":126.8959},{"ID":"SIGMUL007","District":"강서구","Value":750.2532628,"Status":"참","Latitude":37.5509,"Longitude":126.8497},{"ID":"GA070039","District":"관악구","Value":750.2119839,"Status":"참","Latitude":37.4782,"Longitude":126.9518},{"ID":"WN003887","District":"성동구","Value":749.8546744,"Status":"참","Latitude":37.5635,"Longitude":127.0365},{"ID":"WN003863","District":"성동구","Value":749.7683827,"Status":"참","Latitude":37.5635,"Longitude":127.0365},{"ID":"WF190431","District":"노원구","Value":749.2314012,"Status":"참","Latitude":37.654,"Longitude":127.0567},{"ID":"WF190415","District":"노원구","Value":748.8198531,"Status":"참","Latitude":37.654,"Longitude":127.0567},{"ID":"SP260085","District":"송파구","Value":748.8113681,"Status":"참","Latitude":37.5145,"Longitude":127.1058},{"ID":"WF120420","District":"중구","Value":748.8043928,"Status":"참","Latitude":37.5636559,"Longitude":126.9975097},{"ID":"YS050001","District":"용산구","Value":748.193666,"Status":"참","Latitude":37.5323,"Longitude":126.99},{"ID":"GS100043","District":"강서구","Value":748.1382524,"Status":"참","Latitude":37.5509,"Longitude":126.8497},{"ID":"WN000700","District":"도봉구","Value":748.1018659,"Status":"참","Latitude":37.6686,"Longitude":127.0466},{"ID":"WF200098","District":"은평구","Value":748.0234122,"Status":"참","Latitude":37.6024,"Longitude":126.9293},{"ID":"GA070036","District":"관악구","Value":747.1048708,"Status":"참","Latitude":37.4782,"Longitude":126.9518},{"ID":"WF191030","District":"은평구","Value":746.759121,"Status":"참","Latitude":37.6024,"Longitude":126.9293},{"ID":"YC070003","District":"양천구","Value":746.6832695,"Status":"참","Latitude":37.5171,"Longitude":126.8663},{"ID":"SP260037","District":"송파구","Value":746.2833063,"Status":"참","Latitude":37.5145,"Longitude":127.1058},{"ID":"YC170073","District":"양천구","Value":746.0381539,"Status":"참","Latitude":37.5171,"Longitude":126.8663},{"ID":"NW160071","District":"노원구","Value":744.6952028,"Status":"참","Latitude":37.654,"Longitude":127.0567},{"ID":"WF181120","District":"노원구","Value":744.0160038,"Status":"참","Latitude":37.654,"Longitude":127.0567},{"ID":"GR030025","District":"구로구","Value":743.7731118,"Status":"참","Latitude":37.4951999,"Longitude":126.8877},{"ID":"GR010018","District":"구로구","Value":743.603371,"Status":"참","Latitude":37.4951999,"Longitude":126.8877},{"ID":"WF110051","District":"중구","Value":742.8550312,"Status":"참","Latitude":37.5636559,"Longitude":126.9975097},{"ID":"HT210027","District":"중구","Value":742.1967545,"Status":"참","Latitude":37.5636559,"Longitude":126.9975097},{"ID":"WF201099","District":"강동구","Value":742.09885,"Status":"참","Latitude":37.53,"Longitude":127.1237},{"ID":"YC100005","District":"양천구","Value":741.5966277,"Status":"참","Latitude":37.5171,"Longitude":126.8663},{"ID":"SB020021","District":"성북구","Value":741.3824635,"Status":"참","Latitude":37.59,"Longitude":127.0165},{"ID":"WF201853","District":"강동구","Value":740.2776739,"Status":"참","Latitude":37.53,"Longitude":127.1237},{"ID":"WN003897","District":"성동구","Value":739.828978,"Status":"참","Latitude":37.5635,"Longitude":127.0365},{"ID":"SD000442","District":"성동구","Value":739.7778805,"Status":"참","Latitude":37.5635,"Longitude":127.0365},{"ID":"WF200140","District":"서초구","Value":739.4097265,"Status":"참","Latitude":37.4835,"Longitude":127.0322},{"ID":"GB020005","District":"강북구","Value":739.1135469,"Status":"참","Latitude":37.6395,"Longitude":127.0255},{"ID":"GS150007","District":"강서구","Value":737.8175602,"Status":"참","Latitude":37.5509,"Longitude":126.8497},{"ID":"GD130048","District":"강동구","Value":737.5425332,"Status":"참","Latitude":37.53,"Longitude":127.1237},{"ID":"SD000433","District":"성동구","Value":736.8830499,"Status":"참","Latitude":37.5635,"Longitude":127.0365},{"ID":"WN003815","District":"성동구","Value":736.3703068,"Status":"참","Latitude":37.5635,"Longitude":127.0365},{"ID":"WF171013","District":"종로구","Value":736.1009817,"Status":"참","Latitude":37.5806949,"Longitude":126.9827989},{"ID":"WF191135","District":"중구","Value":736.0757776,"Status":"참","Latitude":37.5636559,"Longitude":126.9975097},{"ID":"MP010064","District":"마포구","Value":735.9281142,"Status":"참","Latitude":37.566571,"Longitude":126.9015317},{"ID":"WF190850","District":"양천구","Value":735.8889811,"Status":"참","Latitude":37.5171,"Longitude":126.8663},{"ID":"GA070083","District":"관악구","Value":735.6828061,"Status":"참","Latitude":37.4782,"Longitude":126.9518},{"ID":"WF200068","District":"중구","Value":735.6407289,"Status":"참","Latitude":37.5636559,"Longitude":126.9975097},{"ID":"YC090008","District":"양천구","Value":734.9679231,"Status":"참","Latitude":37.5171,"Longitude":126.8663},{"ID":"GB110022","District":"강북구","Value":734.3704893,"Status":"참","Latitude":37.6395,"Longitude":127.0255},{"ID":"SDM050070","District":"서대문구","Value":734.2188913,"Status":"참","Latitude":37.5790747,"Longitude":126.9367861},{"ID":"EP050007","District":"은평구","Value":733.1267829,"Status":"참","Latitude":37.6024,"Longitude":126.9293},{"ID":"GD130056","District":"강동구","Value":732.8044867,"Status":"참","Latitude":37.53,"Longitude":127.1237},{"ID":"YC020004","District":"양천구","Value":732.5276616,"Status":"참","Latitude":37.5171,"Longitude":126.8663},{"ID":"YS130001","District":"용산구","Value":732.2105138,"Status":"참","Latitude":37.5323,"Longitude":126.99},{"ID":"DDM000034","District":"동대문구","Value":731.8544737,"Status":"참","Latitude":37.5741982,"Longitude":127.0395092},{"ID":"WF191167","District":"중랑구","Value":730.9822744,"Status":"참","Latitude":37.6063,"Longitude":127.093},{"ID":"YS000062","District":"용산구","Value":730.5286248,"Status":"참","Latitude":37.5323,"Longitude":126.99},{"ID":"YC150014","District":"양천구","Value":730.0377886,"Status":"참","Latitude":37.5171,"Longitude":126.8663},{"ID":"WF120235","District":"은평구","Value":729.4196006,"Status":"참","Latitude":37.6024,"Longitude":126.9293},{"ID":"GR060049","District":"구로구","Value":728.3105951,"Status":"참","Latitude":37.4951999,"Longitude":126.8877},{"ID":"GA120001","District":"관악구","Value":728.2992385,"Status":"참","Latitude":37.4782,"Longitude":126.9518},{"ID":"WF190462","District":"노원구","Value":728.1501279,"Status":"참","Latitude":37.654,"Longitude":127.0567},{"ID":"GR040032","District":"구로구","Value":727.7913392,"Status":"참","Latitude":37.4951999,"Longitude":126.8877},{"ID":"YC170090","District":"양천구","Value":727.7576518,"Status":"참","Latitude":37.5171,"Longitude":126.8663},{"ID":"WF200097","District":"은평구","Value":727.5864066,"Status":"참","Latitude":37.6024,"Longitude":126.9293},{"ID":"GB040002","District":"강북구","Value":727.5224049,"Status":"참","Latitude":37.6395,"Longitude":127.0255},{"ID":"YDP200004","District":"영등포구","Value":727.3964369,"Status":"참","Latitude":37.5262,"Longitude":126.8959},{"ID":"WF190746","District":"성동구","Value":726.5393997,"Status":"참","Latitude":37.5635,"Longitude":127.0365},{"ID":"JG000004","District":"중구","Value":726.4580285,"Status":"참","Latitude":37.5636559,"Longitude":126.9975097},{"ID":"GN220009","District":"강남구","Value":725.4208504,"Status":"참","Latitude":37.5177,"Longitude":127.0473},{"ID":"WN003808","District":"성동구","Value":724.9541593,"Status":"참","Latitude":37.5635,"Longitude":127.0365},{"ID":"SB160004","District":"성북구","Value":724.8235604,"Status":"참","Latitude":37.59,"Longitude":127.0165},{"ID":"SC000053","District":"서초구","Value":724.6065349,"Status":"참","Latitude":37.4835,"Longitude":127.0322},{"ID":"SDM050087","District":"서대문구","Value":724.3184768,"Status":"참","Latitude":37.5790747,"Longitude":126.9367861},{"ID":"WF191174","District":"중랑구","Value":724.1861038,"Status":"참","Latitude":37.6063,"Longitude":127.093},{"ID":"WF110071","District":"중구","Value":724.183468,"Status":"참","Latitude":37.5636559,"Longitude":126.9975097},{"ID":"WF190562","District":"동작구","Value":724.0908453,"Status":"참","Latitude":37.5120999,"Longitude":126.9395},{"ID":"WN000673","District":"도봉구","Value":723.2575183,"Status":"참","Latitude":37.6686,"Longitude":127.0466},{"ID":"WF120178","District":"성동구","Value":722.3599988,"Status":"참","Latitude":37.5635,"Longitude":127.0365},{"ID":"SB090004","District":"성북구","Value":722.1294563,"Status":"참","Latitude":37.59,"Longitude":127.0165},{"ID":"WF110090","District":"중구","Value":721.827468,"Status":"참","Latitude":37.5636559,"Longitude":126.9975097},{"ID":"NW040006","District":"노원구","Value":720.4741414,"Status":"참","Latitude":37.654,"Longitude":127.0567},{"ID":"WN003849","District":"성동구","Value":720.3388111,"Status":"참","Latitude":37.5635,"Longitude":127.0365},{"ID":"WF190560","District":"동작구","Value":719.798881,"Status":"참","Latitude":37.5120999,"Longitude":126.9395},{"ID":"WF120384","District":"중구","Value":719.7322992,"Status":"참","Latitude":37.5636559,"Longitude":126.9975097},{"ID":"GD130044","District":"강동구","Value":718.212912,"Status":"참","Latitude":37.53,"Longitude":127.1237},{"ID":"WF171431","District":"노원구","Value":717.490902,"Status":"참","Latitude":37.654,"Longitude":127.0567},{"ID":"EP000049","District":"은평구","Value":715.611213,"Status":"참","Latitude":37.6024,"Longitude":126.9293},{"ID":"SB160001","District":"성북구","Value":715.4690842,"Status":"참","Latitude":37.59,"Longitude":127.0165},{"ID":"GB110010","District":"강북구","Value":715.0386767,"Status":"참","Latitude":37.6395,"Longitude":127.0255},{"ID":"WF120423","District":"중구","Value":714.6804968,"Status":"참","Latitude":37.5636559,"Longitude":126.9975097},{"ID":"GS080026","District":"강서구","Value":714.4967344,"Status":"참","Latitude":37.5509,"Longitude":126.8497},{"ID":"WF110100","District":"중구","Value":714.4196437,"Status":"참","Latitude":37.5636559,"Longitude":126.9975097},{"ID":"YS120001","District":"용산구","Value":714.0946529,"Status":"참","Latitude":37.5323,"Longitude":126.99},{"ID":"WF160027","District":"마포구","Value":713.8861074,"Status":"참","Latitude":37.566571,"Longitude":126.9015317},{"ID":"WF190565","District":"동작구","Value":713.5840249,"Status":"참","Latitude":37.5120999,"Longitude":126.9395},{"ID":"YC130009","District":"양천구","Value":712.9021918,"Status":"참","Latitude":37.5171,"Longitude":126.8663},{"ID":"SD000378","District":"성동구","Value":712.8916994,"Status":"참","Latitude":37.5635,"Longitude":127.0365},{"ID":"WF190779","District":"성북구","Value":712.8336651,"Status":"참","Latitude":37.59,"Longitude":127.0165},{"ID":"WF140044","District":"은평구","Value":712.6891005,"Status":"참","Latitude":37.6024,"Longitude":126.9293},{"ID":"NW030004","District":"노원구","Value":711.8719277,"Status":"참","Latitude":37.654,"Longitude":127.0567},{"ID":"WF110097","District":"중구","Value":711.6726871,"Status":"참","Latitude":37.5636559,"Longitude":126.9975097},{"ID":"WN003964","District":"성동구","Value":711.5554638,"Status":"참","Latitude":37.5635,"Longitude":127.0365},{"ID":"MP010051","District":"마포구","Value":711.4597335,"Status":"참","Latitude":37.566571,"Longitude":126.9015317},{"ID":"WF160087","District":"마포구","Value":710.4158094,"Status":"참","Latitude":37.566571,"Longitude":126.9015317},{"ID":"WF191155","District":"중구","Value":709.7462262,"Status":"참","Latitude":37.5636559,"Longitude":126.9975097},{"ID":"YDP150001","District":"영등포구","Value":709.6761207,"Status":"참","Latitude":37.5262,"Longitude":126.8959},{"ID":"YC060011","District":"양천구","Value":709.4443845,"Status":"참","Latitude":37.5171,"Longitude":126.8663},{"ID":"GS100035","District":"강서구","Value":709.3701197,"Status":"참","Latitude":37.5509,"Longitude":126.8497},{"ID":"YC140007","District":"양천구","Value":709.2348773,"Status":"참","Latitude":37.5171,"Longitude":126.8663},{"ID":"MP020059","District":"마포구","Value":708.6887057,"Status":"참","Latitude":37.566571,"Longitude":126.9015317},{"ID":"NW160077","District":"노원구","Value":707.0820859,"Status":"참","Latitude":37.654,"Longitude":127.0567},{"ID":"SD000295","District":"성동구","Value":706.3246209,"Status":"참","Latitude":37.5635,"Longitude":127.0365},{"ID":"YC010013","District":"양천구","Value":706.2757436,"Status":"참","Latitude":37.5171,"Longitude":126.8663},{"ID":"WN003898","District":"성동구","Value":706.2428567,"Status":"참","Latitude":37.5635,"Longitude":127.0365},{"ID":"DDM000040","District":"동대문구","Value":705.6428059,"Status":"참","Latitude":37.5741982,"Longitude":127.0395092},{"ID":"WN000659","District":"도봉구","Value":705.1236493,"Status":"참","Latitude":37.6686,"Longitude":127.0466},{"ID":"YC170039","District":"양천구","Value":705.0552489,"Status":"참","Latitude":37.5171,"Longitude":126.8663},{"ID":"WF171014","District":"종로구","Value":704.3311059,"Status":"참","Latitude":37.5806949,"Longitude":126.9827989},{"ID":"WF142437","District":"용산구","Value":704.3143829,"Status":"참","Latitude":37.5323,"Longitude":126.99},{"ID":"EP050013","District":"은평구","Value":703.9712227,"Status":"참","Latitude":37.6024,"Longitude":126.9293},{"ID":"GD130022","District":"강동구","Value":703.9097337,"Status":"참","Latitude":37.53,"Longitude":127.1237},{"ID":"YC080002","District":"양천구","Value":703.8921902,"Status":"참","Latitude":37.5171,"Longitude":126.8663},{"ID":"EP000017","District":"은평구","Value":703.5306564,"Status":"참","Latitude":37.6024,"Longitude":126.9293},{"ID":"WF190933","District":"용산구","Value":703.1890204,"Status":"참","Latitude":37.5323,"Longitude":126.99},{"ID":"GS090024","District":"강서구","Value":701.2649505,"Status":"참","Latitude":37.5509,"Longitude":126.8497},{"ID":"WN000712","District":"도봉구","Value":701.170987,"Status":"참","Latitude":37.6686,"Longitude":127.0466},{"ID":"WN003813","District":"성동구","Value":700.7415194,"Status":"참","Latitude":37.5635,"Longitude":127.0365},{"ID":"GS010008","District":"강서구","Value":700.6042905,"Status":"참","Latitude":37.5509,"Longitude":126.8497},{"ID":"WF191101","District":"종로구","Value":700.43943,"Status":"참","Latitude":37.5806949,"Longitude":126.9827989},{"ID":"YDP000019","District":"영등포구","Value":700.2082809,"Status":"참","Latitude":37.5262,"Longitude":126.8959},{"ID":"SD000407","District":"성동구","Value":700.0616111,"Status":"참","Latitude":37.5635,"Longitude":127.0365},{"ID":"GS140030","District":"강서구","Value":698.583289,"Status":"참","Latitude":37.5509,"Longitude":126.8497},{"ID":"GR030033","District":"구로구","Value":698.5653514,"Status":"참","Latitude":37.4951999,"Longitude":126.8877},{"ID":"NW060001","District":"노원구","Value":698.2224648,"Status":"참","Latitude":37.654,"Longitude":127.0567},{"ID":"GB070007","District":"강북구","Value":697.9479031,"Status":"참","Latitude":37.6395,"Longitude":127.0255},{"ID":"MP030006","District":"마포구","Value":697.682598,"Status":"참","Latitude":37.566571,"Longitude":126.9015317},{"ID":"SB020035","District":"성북구","Value":697.3493732,"Status":"참","Latitude":37.59,"Longitude":127.0165},{"ID":"SC000050","District":"서초구","Value":696.9181328,"Status":"참","Latitude":37.4835,"Longitude":127.0322},{"ID":"SB020023","District":"성북구","Value":695.4731201,"Status":"참","Latitude":37.59,"Longitude":127.0165},{"ID":"YS000060","District":"용산구","Value":694.309984,"Status":"참","Latitude":37.5323,"Longitude":126.99},{"ID":"GN120007","District":"강남구","Value":693.3357614,"Status":"참","Latitude":37.5177,"Longitude":127.0473},{"ID":"NW160030","District":"노원구","Value":693.1051116,"Status":"참","Latitude":37.654,"Longitude":127.0567},{"ID":"WF181295","District":"동작구","Value":692.7687816,"Status":"참","Latitude":37.5120999,"Longitude":126.9395},{"ID":"WF190433","District":"노원구","Value":692.7074066,"Status":"참","Latitude":37.654,"Longitude":127.0567},{"ID":"GS110012","District":"강서구","Value":691.7583379,"Status":"참","Latitude":37.5509,"Longitude":126.8497},{"ID":"WF200026","District":"중구","Value":691.7573124,"Status":"참","Latitude":37.5636559,"Longitude":126.9975097},{"ID":"YS000042","District":"용산구","Value":691.4314929,"Status":"참","Latitude":37.5323,"Longitude":126.99},{"ID":"WF205112","District":"중구","Value":690.9301035,"Status":"참","Latitude":37.5636559,"Longitude":126.9975097},{"ID":"WN000665","District":"도봉구","Value":688.8669476,"Status":"참","Latitude":37.6686,"Longitude":127.0466},{"ID":"YC170088","District":"양천구","Value":688.8370761,"Status":"참","Latitude":37.5171,"Longitude":126.8663},{"ID":"SB020028","District":"성북구","Value":688.5259076,"Status":"참","Latitude":37.59,"Longitude":127.0165},{"ID":"YC120001","District":"양천구","Value":688.4510429,"Status":"참","Latitude":37.5171,"Longitude":126.8663},{"ID":"WN003805","District":"성동구","Value":688.3385765,"Status":"참","Latitude":37.5635,"Longitude":127.0365},{"ID":"WF160077","District":"마포구","Value":687.3112016,"Status":"참","Latitude":37.566571,"Longitude":126.9015317},{"ID":"WF110108","District":"중구","Value":686.7184404,"Status":"참","Latitude":37.5636559,"Longitude":126.9975097},{"ID":"YC170048","District":"양천구","Value":686.6305384,"Status":"참","Latitude":37.5171,"Longitude":126.8663},{"ID":"YC110001","District":"양천구","Value":686.6106302,"Status":"참","Latitude":37.5171,"Longitude":126.8663},{"ID":"EP000009","District":"은평구","Value":686.0688908,"Status":"참","Latitude":37.6024,"Longitude":126.9293},{"ID":"WF191124","District":"중구","Value":685.9554766,"Status":"참","Latitude":37.5636559,"Longitude":126.9975097},{"ID":"WF110118","District":"중구","Value":685.0598634,"Status":"참","Latitude":37.5636559,"Longitude":126.9975097},{"ID":"GB010001","District":"강북구","Value":684.3786672,"Status":"참","Latitude":37.6395,"Longitude":127.0255},{"ID":"SC000062","District":"서초구","Value":684.1646435,"Status":"참","Latitude":37.4835,"Longitude":127.0322},{"ID":"WF200035","District":"중구","Value":684.1277913,"Status":"참","Latitude":37.5636559,"Longitude":126.9975097},{"ID":"WF161263","District":"관악구","Value":683.9898313,"Status":"참","Latitude":37.4782,"Longitude":126.9518},{"ID":"GB060004","District":"강북구","Value":683.7603108,"Status":"참","Latitude":37.6395,"Longitude":127.0255},{"ID":"SB090002","District":"성북구","Value":682.8337976,"Status":"참","Latitude":37.59,"Longitude":127.0165},{"ID":"GA150002","District":"관악구","Value":682.7175263,"Status":"참","Latitude":37.4782,"Longitude":126.9518},{"ID":"WN000656","District":"도봉구","Value":682.2712474,"Status":"참","Latitude":37.6686,"Longitude":127.0466},{"ID":"NW150002","District":"노원구","Value":681.6246484,"Status":"참","Latitude":37.654,"Longitude":127.0567},{"ID":"GN070041","District":"강남구","Value":680.9051565,"Status":"참","Latitude":37.5177,"Longitude":127.0473},{"ID":"WF161661","District":"금천구","Value":680.7063817,"Status":"참","Latitude":37.4565,"Longitude":126.8954},{"ID":"GJ070002","District":"광진구","Value":680.5247764,"Status":"참","Latitude":37.5384,"Longitude":127.0828},{"ID":"WF110088","District":"중구","Value":680.5202507,"Status":"참","Latitude":37.5636559,"Longitude":126.9975097},{"ID":"NW170001","District":"노원구","Value":680.4264757,"Status":"참","Latitude":37.654,"Longitude":127.0567},{"ID":"WF161245","District":"관악구","Value":679.8481086,"Status":"참","Latitude":37.4782,"Longitude":126.9518},{"ID":"WF110203","District":"중구","Value":678.8896734,"Status":"참","Latitude":37.5636559,"Longitude":126.9975097},{"ID":"WF201592","District":"양천구","Value":678.5171981,"Status":"참","Latitude":37.5171,"Longitude":126.8663},{"ID":"GS100068","District":"강서구","Value":678.3096408,"Status":"참","Latitude":37.5509,"Longitude":126.8497},{"ID":"NW010001","District":"노원구","Value":677.3174365,"Status":"참","Latitude":37.654,"Longitude":127.0567},{"ID":"EP000022","District":"은평구","Value":677.2457712,"Status":"참","Latitude":37.6024,"Longitude":126.9293},{"ID":"DDM000030","District":"동대문구","Value":677.0000293,"Status":"참","Latitude":37.5741982,"Longitude":127.0395092},{"ID":"JG180002","District":"중구","Value":676.9144372,"Status":"참","Latitude":37.5636559,"Longitude":126.9975097},{"ID":"YDP010002","District":"영등포구","Value":676.5950953,"Status":"참","Latitude":37.5262,"Longitude":126.8959},{"ID":"GN070050","District":"강남구","Value":676.1410777,"Status":"참","Latitude":37.5177,"Longitude":127.0473},{"ID":"WF200014","District":"중구","Value":675.9318334,"Status":"참","Latitude":37.5636559,"Longitude":126.9975097},{"ID":"WF152332","District":"송파구","Value":675.4830395,"Status":"참","Latitude":37.5145,"Longitude":127.1058},{"ID":"WF131728","District":"마포구","Value":675.0612113,"Status":"참","Latitude":37.566571,"Longitude":126.9015317},{"ID":"NW120005","District":"노원구","Value":674.828292,"Status":"참","Latitude":37.654,"Longitude":127.0567},{"ID":"YC090001","District":"양천구","Value":674.6397356,"Status":"참","Latitude":37.5171,"Longitude":126.8663},{"ID":"SB020005","District":"성북구","Value":674.4276067,"Status":"참","Latitude":37.59,"Longitude":127.0165},{"ID":"WF192005","District":"영등포구","Value":674.2600533,"Status":"참","Latitude":37.5262,"Longitude":126.8959},{"ID":"WF190290","District":"구로구","Value":674.2517048,"Status":"참","Latitude":37.4951999,"Longitude":126.8877},{"ID":"WF171145","District":"용산구","Value":674.0913437,"Status":"참","Latitude":37.5323,"Longitude":126.99},{"ID":"YS000040","District":"용산구","Value":673.5962248,"Status":"참","Latitude":37.5323,"Longitude":126.99},{"ID":"GN070094","District":"강남구","Value":673.4540296,"Status":"참","Latitude":37.5177,"Longitude":127.0473},{"ID":"WN003811","District":"성동구","Value":673.3726695,"Status":"참","Latitude":37.5635,"Longitude":127.0365},{"ID":"GR140019","District":"구로구","Value":673.1703362,"Status":"참","Latitude":37.4951999,"Longitude":126.8877},{"ID":"WF190504","District":"동대문구","Value":673.0442916,"Status":"참","Latitude":37.5741982,"Longitude":127.0395092},{"ID":"GA070043","District":"관악구","Value":672.7561393,"Status":"참","Latitude":37.4782,"Longitude":126.9518},{"ID":"WN000668","District":"도봉구","Value":672.7430182,"Status":"참","Latitude":37.6686,"Longitude":127.0466},{"ID":"GB020004","District":"강북구","Value":672.12593,"Status":"참","Latitude":37.6395,"Longitude":127.0255},{"ID":"WF161267","District":"관악구","Value":671.5566664,"Status":"참","Latitude":37.4782,"Longitude":126.9518},{"ID":"NW030005","District":"노원구","Value":671.5206907,"Status":"참","Latitude":37.654,"Longitude":127.0567},{"ID":"YC120032","District":"양천구","Value":671.299752,"Status":"참","Latitude":37.5171,"Longitude":126.8663},{"ID":"YC170095","District":"양천구","Value":671.141008,"Status":"참","Latitude":37.5171,"Longitude":126.8663},{"ID":"DB100012","District":"도봉구","Value":670.6975269,"Status":"참","Latitude":37.6686,"Longitude":127.0466},{"ID":"EP000013","District":"은평구","Value":670.2285224,"Status":"참","Latitude":37.6024,"Longitude":126.9293},{"ID":"WF190931","District":"용산구","Value":669.7592526,"Status":"참","Latitude":37.5323,"Longitude":126.99},{"ID":"NW050001","District":"노원구","Value":669.5134732,"Status":"참","Latitude":37.654,"Longitude":127.0567},{"ID":"YC170075","District":"양천구","Value":669.3868153,"Status":"참","Latitude":37.5171,"Longitude":126.8663},{"ID":"GA070077","District":"관악구","Value":668.3084979,"Status":"참","Latitude":37.4782,"Longitude":126.9518},{"ID":"GB110036","District":"강북구","Value":667.6504285,"Status":"참","Latitude":37.6395,"Longitude":127.0255},{"ID":"WF120236","District":"은평구","Value":667.6155204,"Status":"참","Latitude":37.6024,"Longitude":126.9293},{"ID":"YC090002","District":"양천구","Value":667.1207616,"Status":"참","Latitude":37.5171,"Longitude":126.8663},{"ID":"WF141763","District":"도봉구","Value":666.7202178,"Status":"참","Latitude":37.6686,"Longitude":127.0466},{"ID":"YC160004","District":"양천구","Value":666.0726844,"Status":"참","Latitude":37.5171,"Longitude":126.8663},{"ID":"WF190729","District":"서초구","Value":666.0118177,"Status":"참","Latitude":37.4835,"Longitude":127.0322},{"ID":"WF161272","District":"관악구","Value":665.7654847,"Status":"참","Latitude":37.4782,"Longitude":126.9518},{"ID":"SC000072","District":"서초구","Value":664.6309562,"Status":"참","Latitude":37.4835,"Longitude":127.0322},{"ID":"SB020047","District":"성북구","Value":664.1387876,"Status":"참","Latitude":37.59,"Longitude":127.0165},{"ID":"WF120354","District":"중구","Value":663.7786026,"Status":"참","Latitude":37.5636559,"Longitude":126.9975097},{"ID":"SC000059","District":"서초구","Value":663.3977127,"Status":"참","Latitude":37.4835,"Longitude":127.0322},{"ID":"WF190087","District":"강북구","Value":663.3442939,"Status":"참","Latitude":37.6395,"Longitude":127.0255},{"ID":"WN003800","District":"성동구","Value":663.2594907,"Status":"참","Latitude":37.5635,"Longitude":127.0365},{"ID":"YC130010","District":"양천구","Value":663.0527909,"Status":"참","Latitude":37.5171,"Longitude":126.8663},{"ID":"YC170055","District":"양천구","Value":662.8490456,"Status":"참","Latitude":37.5171,"Longitude":126.8663},{"ID":"YDP080001","District":"영등포구","Value":662.773333,"Status":"참","Latitude":37.5262,"Longitude":126.8959},{"ID":"JG170002","District":"중구","Value":662.6131403,"Status":"참","Latitude":37.5636559,"Longitude":126.9975097},{"ID":"WF190044","District":"강남구","Value":662.487041,"Status":"참","Latitude":37.5177,"Longitude":127.0473},{"ID":"GD090001","District":"강동구","Value":662.44112,"Status":"참","Latitude":37.53,"Longitude":127.1237},{"ID":"WN003999","District":"성동구","Value":662.1261365,"Status":"참","Latitude":37.5635,"Longitude":127.0365},{"ID":"WF205118","District":"중구","Value":662.0998427,"Status":"참","Latitude":37.5636559,"Longitude":126.9975097},{"ID":"WF190299","District":"구로구","Value":661.5337954,"Status":"참","Latitude":37.4951999,"Longitude":126.8877},{"ID":"GB080002","District":"강북구","Value":661.2836943,"Status":"참","Latitude":37.6395,"Longitude":127.0255},{"ID":"SP140002","District":"송파구","Value":661.2538913,"Status":"참","Latitude":37.5145,"Longitude":127.1058},{"ID":"WF205101","District":"중구","Value":660.8678078,"Status":"참","Latitude":37.5636559,"Longitude":126.9975097},{"ID":"GN200011","District":"강남구","Value":660.5236137,"Status":"참","Latitude":37.5177,"Longitude":127.0473},{"ID":"WF141256","District":"강북구","Value":660.4806045,"Status":"참","Latitude":37.6395,"Longitude":127.0255},{"ID":"GJ100018","District":"광진구","Value":659.4324744,"Status":"참","Latitude":37.5384,"Longitude":127.0828},{"ID":"WF191025","District":"은평구","Value":659.157583,"Status":"참","Latitude":37.6024,"Longitude":126.9293},{"ID":"GS080008","District":"강서구","Value":658.4652158,"Status":"참","Latitude":37.5509,"Longitude":126.8497},{"ID":"WN000652","District":"도봉구","Value":657.7983917,"Status":"참","Latitude":37.6686,"Longitude":127.0466},{"ID":"WF161242","District":"관악구","Value":657.7000029,"Status":"참","Latitude":37.4782,"Longitude":126.9518},{"ID":"YC010003","District":"양천구","Value":657.3441438,"Status":"참","Latitude":37.5171,"Longitude":126.8663},{"ID":"WF120065","District":"서초구","Value":656.8815768,"Status":"참","Latitude":37.4835,"Longitude":127.0322},{"ID":"WN003865","District":"성동구","Value":656.7372481,"Status":"참","Latitude":37.5635,"Longitude":127.0365},{"ID":"WF120387","District":"중구","Value":656.7154925,"Status":"참","Latitude":37.5636559,"Longitude":126.9975097},{"ID":"WF190057","District":"강동구","Value":655.9167085,"Status":"참","Latitude":37.53,"Longitude":127.1237},{"ID":"EP000002","District":"은평구","Value":655.6803479,"Status":"참","Latitude":37.6024,"Longitude":126.9293},{"ID":"NW160013","District":"노원구","Value":655.3153583,"Status":"참","Latitude":37.654,"Longitude":127.0567},{"ID":"GS180026","District":"강서구","Value":655.1699196,"Status":"참","Latitude":37.5509,"Longitude":126.8497},{"ID":"WF110185","District":"중구","Value":655.0328051,"Status":"참","Latitude":37.5636559,"Longitude":126.9975097},{"ID":"WF160017","District":"마포구","Value":654.9572859,"Status":"참","Latitude":37.566571,"Longitude":126.9015317},{"ID":"YC170061","District":"양천구","Value":654.3763944,"Status":"참","Latitude":37.5171,"Longitude":126.8663},{"ID":"GN110087","District":"강남구","Value":653.6762622,"Status":"참","Latitude":37.5177,"Longitude":127.0473},{"ID":"WF190204","District":"관악구","Value":653.5594753,"Status":"참","Latitude":37.4782,"Longitude":126.9518},{"ID":"WF181298","District":"동작구","Value":653.4879385,"Status":"참","Latitude":37.5120999,"Longitude":126.9395},{"ID":"WF121825","District":"용산구","Value":651.3126452,"Status":"참","Latitude":37.5323,"Longitude":126.99},{"ID":"EP120004","District":"은평구","Value":651.2087446,"Status":"참","Latitude":37.6024,"Longitude":126.9293},{"ID":"WF171184","District":"용산구","Value":650.8954595,"Status":"참","Latitude":37.5323,"Longitude":126.99},{"ID":"WF171370","District":"도봉구","Value":650.8892151,"Status":"참","Latitude":37.6686,"Longitude":127.0466},{"ID":"YC150002","District":"양천구","Value":650.6339673,"Status":"참","Latitude":37.5171,"Longitude":126.8663},{"ID":"WN000677","District":"도봉구","Value":650.5747869,"Status":"참","Latitude":37.6686,"Longitude":127.0466},{"ID":"YC170006","District":"양천구","Value":650.4893195,"Status":"참","Latitude":37.5171,"Longitude":126.8663},{"ID":"GA070034","District":"관악구","Value":649.5753039,"Status":"참","Latitude":37.4782,"Longitude":126.9518},{"ID":"GS100015","District":"강서구","Value":649.2281385,"Status":"참","Latitude":37.5509,"Longitude":126.8497},{"ID":"SDM110010","District":"서대문구","Value":648.659038,"Status":"참","Latitude":37.5790747,"Longitude":126.9367861},{"ID":"SD000447","District":"성동구","Value":648.5216084,"Status":"참","Latitude":37.5635,"Longitude":127.0365},{"ID":"GR030047","District":"구로구","Value":647.4371713,"Status":"참","Latitude":37.4951999,"Longitude":126.8877},{"ID":"WF110216","District":"중구","Value":647.2359701,"Status":"참","Latitude":37.5636559,"Longitude":126.9975097},{"ID":"WF120437","District":"중구","Value":647.1480992,"Status":"참","Latitude":37.5636559,"Longitude":126.9975097},{"ID":"MP020041","District":"마포구","Value":647.0341188,"Status":"참","Latitude":37.566571,"Longitude":126.9015317},{"ID":"WF200084","District":"중구","Value":646.5022376,"Status":"참","Latitude":37.5636559,"Longitude":126.9975097},{"ID":"GN070004","District":"강남구","Value":646.4657047,"Status":"참","Latitude":37.5177,"Longitude":127.0473},{"ID":"SDM050069","District":"서대문구","Value":645.5809261,"Status":"참","Latitude":37.5790747,"Longitude":126.9367861},{"ID":"WF171920","District":"관악구","Value":645.4980981,"Status":"참","Latitude":37.4782,"Longitude":126.9518},{"ID":"GR040022","District":"구로구","Value":644.6992228,"Status":"참","Latitude":37.4951999,"Longitude":126.8877},{"ID":"WF201385","District":"도봉구","Value":643.709455,"Status":"참","Latitude":37.6686,"Longitude":127.0466},{"ID":"WN003825","District":"성동구","Value":643.4567459,"Status":"참","Latitude":37.5635,"Longitude":127.0365},{"ID":"DDM000032","District":"동대문구","Value":643.2247422,"Status":"참","Latitude":37.5741982,"Longitude":127.0395092},{"ID":"HT210004","District":"중구","Value":643.084937,"Status":"참","Latitude":37.5636559,"Longitude":126.9975097},{"ID":"WF181110","District":"노원구","Value":642.2360573,"Status":"참","Latitude":37.654,"Longitude":127.0567},{"ID":"WF190006","District":"강남구","Value":642.0691941,"Status":"참","Latitude":37.5177,"Longitude":127.0473},{"ID":"WN003899","District":"성동구","Value":641.27999,"Status":"참","Latitude":37.5635,"Longitude":127.0365},{"ID":"WF171699","District":"금천구","Value":640.5041603,"Status":"참","Latitude":37.4565,"Longitude":126.8954},{"ID":"YC060012","District":"양천구","Value":640.2391752,"Status":"참","Latitude":37.5171,"Longitude":126.8663},{"ID":"WF190651","District":"마포구","Value":640.0457625,"Status":"참","Latitude":37.566571,"Longitude":126.9015317},{"ID":"GR050027","District":"구로구","Value":639.5544024,"Status":"참","Latitude":37.4951999,"Longitude":126.8877},{"ID":"YC080004","District":"양천구","Value":638.8944873,"Status":"참","Latitude":37.5171,"Longitude":126.8663},{"ID":"NW160005","District":"노원구","Value":638.8895546,"Status":"참","Latitude":37.654,"Longitude":127.0567},{"ID":"MP010013","District":"마포구","Value":638.1151415,"Status":"참","Latitude":37.566571,"Longitude":126.9015317},{"ID":"WF200041","District":"중구","Value":637.7527146,"Status":"참","Latitude":37.5636559,"Longitude":126.9975097},{"ID":"YDP000051","District":"영등포구","Value":637.2005517,"Status":"참","Latitude":37.5262,"Longitude":126.8959},{"ID":"DB140007","District":"도봉구","Value":637.1844298,"Status":"참","Latitude":37.6686,"Longitude":127.0466},{"ID":"SB020030","District":"성북구","Value":637.040855,"Status":"참","Latitude":37.59,"Longitude":127.0165},{"ID":"SB020031","District":"성북구","Value":637.0161199,"Status":"참","Latitude":37.59,"Longitude":127.0165},{"ID":"WF190984","District":"은평구","Value":636.9844005,"Status":"참","Latitude":37.6024,"Longitude":126.9293},{"ID":"WF110016","District":"마포구","Value":636.7287722,"Status":"참","Latitude":37.566571,"Longitude":126.9015317},{"ID":"GN050023","District":"강남구","Value":636.4278107,"Status":"참","Latitude":37.5177,"Longitude":127.0473},{"ID":"DDM000021","District":"동대문구","Value":635.2106708,"Status":"참","Latitude":37.5741982,"Longitude":127.0395092},{"ID":"EP140004","District":"은평구","Value":634.4490755,"Status":"참","Latitude":37.6024,"Longitude":126.9293},{"ID":"WF140008","District":"강북구","Value":633.6703009,"Status":"참","Latitude":37.6395,"Longitude":127.0255},{"ID":"YC050019","District":"양천구","Value":633.6221254,"Status":"참","Latitude":37.5171,"Longitude":126.8663},{"ID":"SC000041","District":"서초구","Value":632.9129656,"Status":"참","Latitude":37.4835,"Longitude":127.0322},{"ID":"YC040013","District":"양천구","Value":632.4942842,"Status":"참","Latitude":37.5171,"Longitude":126.8663},{"ID":"SD000453","District":"성동구","Value":631.9193515,"Status":"참","Latitude":37.5635,"Longitude":127.0365},{"ID":"WN000695","District":"도봉구","Value":631.6465506,"Status":"참","Latitude":37.6686,"Longitude":127.0466},{"ID":"YC170069","District":"양천구","Value":631.5889524,"Status":"참","Latitude":37.5171,"Longitude":126.8663},{"ID":"GS030011","District":"강서구","Value":631.1795485,"Status":"참","Latitude":37.5509,"Longitude":126.8497},{"ID":"JG050002","District":"중구","Value":630.7325046,"Status":"참","Latitude":37.5636559,"Longitude":126.9975097},{"ID":"WF120221","District":"은평구","Value":630.2124079,"Status":"참","Latitude":37.6024,"Longitude":126.9293},{"ID":"YC050021","District":"양천구","Value":629.9236099,"Status":"참","Latitude":37.5171,"Longitude":126.8663},{"ID":"GN070042","District":"강남구","Value":629.7559441,"Status":"참","Latitude":37.5177,"Longitude":127.0473},{"ID":"WF120238","District":"은평구","Value":628.2074159,"Status":"참","Latitude":37.6024,"Longitude":126.9293},{"ID":"WF190012","District":"강남구","Value":628.1785905,"Status":"참","Latitude":37.5177,"Longitude":127.0473},{"ID":"GB050005","District":"강북구","Value":627.8293838,"Status":"참","Latitude":37.6395,"Longitude":127.0255},{"ID":"GS190008","District":"강서구","Value":627.3561917,"Status":"참","Latitude":37.5509,"Longitude":126.8497},{"ID":"YS000002","District":"용산구","Value":627.1802279,"Status":"참","Latitude":37.5323,"Longitude":126.99},{"ID":"WF200117","District":"서초구","Value":627.0024969,"Status":"참","Latitude":37.4835,"Longitude":127.0322},{"ID":"WF110080","District":"중구","Value":626.7188927,"Status":"참","Latitude":37.5636559,"Longitude":126.9975097},{"ID":"GS150008","District":"강서구","Value":625.7591987,"Status":"참","Latitude":37.5509,"Longitude":126.8497},{"ID":"NW160049","District":"노원구","Value":625.6729127,"Status":"참","Latitude":37.654,"Longitude":127.0567},{"ID":"YC170038","District":"양천구","Value":625.0263751,"Status":"참","Latitude":37.5171,"Longitude":126.8663},{"ID":"WF190823","District":"송파구","Value":624.2428196,"Status":"참","Latitude":37.5145,"Longitude":127.1058},{"ID":"GD130066","District":"강동구","Value":623.734884,"Status":"참","Latitude":37.53,"Longitude":127.1237},{"ID":"WF160075","District":"마포구","Value":623.5619727,"Status":"참","Latitude":37.566571,"Longitude":126.9015317},{"ID":"NW130008","District":"노원구","Value":623.4336819,"Status":"참","Latitude":37.654,"Longitude":127.0567},{"ID":"WF180008","District":"중구","Value":623.0912037,"Status":"참","Latitude":37.5636559,"Longitude":126.9975097},{"ID":"NW160003","District":"노원구","Value":622.8992044,"Status":"참","Latitude":37.654,"Longitude":127.0567},{"ID":"YDP000062","District":"영등포구","Value":622.6430652,"Status":"참","Latitude":37.5262,"Longitude":126.8959},{"ID":"GJ130007","District":"광진구","Value":622.4672929,"Status":"참","Latitude":37.5384,"Longitude":127.0828},{"ID":"WF190429","District":"노원구","Value":621.8072719,"Status":"참","Latitude":37.654,"Longitude":127.0567},{"ID":"GD130119","District":"강동구","Value":620.6128554,"Status":"참","Latitude":37.53,"Longitude":127.1237},{"ID":"SD000092","District":"성동구","Value":620.4191968,"Status":"참","Latitude":37.5635,"Longitude":127.0365},{"ID":"YDP000039","District":"영등포구","Value":620.114381,"Status":"참","Latitude":37.5262,"Longitude":126.8959},{"ID":"WF190808","District":"송파구","Value":620.0981737,"Status":"참","Latitude":37.5145,"Longitude":127.1058},{"ID":"WF110082","District":"중구","Value":620.0282447,"Status":"참","Latitude":37.5636559,"Longitude":126.9975097},{"ID":"WN003884","District":"성동구","Value":619.5553662,"Status":"참","Latitude":37.5635,"Longitude":127.0365},{"ID":"GN070040","District":"강남구","Value":619.4939096,"Status":"참","Latitude":37.5177,"Longitude":127.0473},{"ID":"YC070009","District":"양천구","Value":619.2676243,"Status":"참","Latitude":37.5171,"Longitude":126.8663},{"ID":"GN070028","District":"강남구","Value":618.8039389,"Status":"참","Latitude":37.5177,"Longitude":127.0473},{"ID":"NW160008","District":"노원구","Value":618.3540059,"Status":"참","Latitude":37.654,"Longitude":127.0567},{"ID":"SP260039","District":"송파구","Value":617.8563732,"Status":"참","Latitude":37.5145,"Longitude":127.1058},{"ID":"GD130122","District":"강동구","Value":617.665495,"Status":"참","Latitude":37.53,"Longitude":127.1237},{"ID":"GJ010004","District":"광진구","Value":617.1509061,"Status":"참","Latitude":37.5384,"Longitude":127.0828},{"ID":"SB020007","District":"성북구","Value":616.3690211,"Status":"참","Latitude":37.59,"Longitude":127.0165},{"ID":"SB020003","District":"성북구","Value":616.2069274,"Status":"참","Latitude":37.59,"Longitude":127.0165},{"ID":"WF200033","District":"중구","Value":616.2048653,"Status":"참","Latitude":37.5636559,"Longitude":126.9975097},{"ID":"WF190430","District":"노원구","Value":615.7771278,"Status":"참","Latitude":37.654,"Longitude":127.0567},{"ID":"GR050044","District":"구로구","Value":615.7668029,"Status":"참","Latitude":37.4951999,"Longitude":126.8877},{"ID":"SD000009","District":"성동구","Value":615.208348,"Status":"참","Latitude":37.5635,"Longitude":127.0365},{"ID":"WF120418","District":"중구","Value":614.5589832,"Status":"참","Latitude":37.5636559,"Longitude":126.9975097},{"ID":"GC100005","District":"금천구","Value":614.3046638,"Status":"참","Latitude":37.4565,"Longitude":126.8954},{"ID":"GR060020","District":"구로구","Value":613.7681719,"Status":"참","Latitude":37.4951999,"Longitude":126.8877},{"ID":"YDP100001","District":"영등포구","Value":613.6440115,"Status":"참","Latitude":37.5262,"Longitude":126.8959},{"ID":"GN070080","District":"강남구","Value":613.5227403,"Status":"참","Latitude":37.5177,"Longitude":127.0473},{"ID":"EP050012","District":"은평구","Value":613.2124695,"Status":"참","Latitude":37.6024,"Longitude":126.9293},{"ID":"YC170028","District":"양천구","Value":612.3635625,"Status":"참","Latitude":37.5171,"Longitude":126.8663},{"ID":"WF121603","District":"송파구","Value":612.1875932,"Status":"참","Latitude":37.5145,"Longitude":127.1058},{"ID":"WF190003","District":"강남구","Value":612.0993923,"Status":"참","Latitude":37.5177,"Longitude":127.0473},{"ID":"GS200022","District":"강서구","Value":612.0845993,"Status":"참","Latitude":37.5509,"Longitude":126.8497},{"ID":"WF200069","District":"중구","Value":611.770462,"Status":"참","Latitude":37.5636559,"Longitude":126.9975097},{"ID":"SDM050089","District":"서대문구","Value":611.6608688,"Status":"참","Latitude":37.5790747,"Longitude":126.9367861},{"ID":"WF131729","District":"마포구","Value":611.267301,"Status":"참","Latitude":37.566571,"Longitude":126.9015317},{"ID":"EP000114","District":"은평구","Value":611.2380861,"Status":"참","Latitude":37.6024,"Longitude":126.9293},{"ID":"NW160025","District":"노원구","Value":611.0827978,"Status":"참","Latitude":37.654,"Longitude":127.0567},{"ID":"WF190274","District":"구로구","Value":611.0080083,"Status":"참","Latitude":37.4951999,"Longitude":126.8877},{"ID":"GJ030003","District":"광진구","Value":610.8340845,"Status":"참","Latitude":37.5384,"Longitude":127.0828},{"ID":"YC050023","District":"양천구","Value":610.0460118,"Status":"참","Latitude":37.5171,"Longitude":126.8663},{"ID":"WF110217","District":"중구","Value":610.0201214,"Status":"참","Latitude":37.5636559,"Longitude":126.9975097},{"ID":"WN003860","District":"성동구","Value":609.7211182,"Status":"참","Latitude":37.5635,"Longitude":127.0365},{"ID":"DB050006","District":"도봉구","Value":609.3542207,"Status":"참","Latitude":37.6686,"Longitude":127.0466},{"ID":"GJ100013","District":"광진구","Value":609.2712187,"Status":"참","Latitude":37.5384,"Longitude":127.0828},{"ID":"WF190764","District":"성북구","Value":609.0308586,"Status":"참","Latitude":37.59,"Longitude":127.0165},{"ID":"YC070002","District":"양천구","Value":608.9850415,"Status":"참","Latitude":37.5171,"Longitude":126.8663},{"ID":"SD000368","District":"성동구","Value":608.8649503,"Status":"참","Latitude":37.5635,"Longitude":127.0365},{"ID":"GS100017","District":"강서구","Value":608.7557291,"Status":"참","Latitude":37.5509,"Longitude":126.8497},{"ID":"GR100022","District":"구로구","Value":608.6767971,"Status":"참","Latitude":37.4951999,"Longitude":126.8877},{"ID":"WN003908","District":"성동구","Value":607.9894617,"Status":"참","Latitude":37.5635,"Longitude":127.0365},{"ID":"GS100072","District":"강서구","Value":607.6445534,"Status":"참","Latitude":37.5509,"Longitude":126.8497},{"ID":"DDM000029","District":"동대문구","Value":607.6390194,"Status":"참","Latitude":37.5741982,"Longitude":127.0395092},{"ID":"YS000013","District":"용산구","Value":607.5268959,"Status":"참","Latitude":37.5323,"Longitude":126.99},{"ID":"YS030001","District":"용산구","Value":607.3065139,"Status":"참","Latitude":37.5323,"Longitude":126.99},{"ID":"MP010044","District":"마포구","Value":607.1390915,"Status":"참","Latitude":37.566571,"Longitude":126.9015317},{"ID":"WF160048","District":"마포구","Value":606.8444946,"Status":"참","Latitude":37.566571,"Longitude":126.9015317},{"ID":"YDP000017","District":"영등포구","Value":606.654113,"Status":"참","Latitude":37.5262,"Longitude":126.8959},{"ID":"JN010009","District":"중랑구","Value":606.2524251,"Status":"참","Latitude":37.6063,"Longitude":127.093},{"ID":"GN070083","District":"강남구","Value":606.1351495,"Status":"참","Latitude":37.5177,"Longitude":127.0473},{"ID":"GA090002","District":"관악구","Value":606.0786616,"Status":"참","Latitude":37.4782,"Longitude":126.9518},{"ID":"NW010007","District":"노원구","Value":605.7263714,"Status":"참","Latitude":37.654,"Longitude":127.0567},{"ID":"WF2020104","District":"동대문구","Value":605.6975412,"Status":"참","Latitude":37.5741982,"Longitude":127.0395092},{"ID":"YC170093","District":"양천구","Value":605.3605928,"Status":"참","Latitude":37.5171,"Longitude":126.8663},{"ID":"EP000123","District":"은평구","Value":605.1228616,"Status":"참","Latitude":37.6024,"Longitude":126.9293},{"ID":"YC170107","District":"양천구","Value":604.813563,"Status":"참","Latitude":37.5171,"Longitude":126.8663},{"ID":"GS030027","District":"강서구","Value":604.696377,"Status":"참","Latitude":37.5509,"Longitude":126.8497},{"ID":"DB030011","District":"도봉구","Value":604.6832327,"Status":"참","Latitude":37.6686,"Longitude":127.0466},{"ID":"WF151869","District":"마포구","Value":604.6779885,"Status":"참","Latitude":37.566571,"Longitude":126.9015317},{"ID":"WF201591","District":"양천구","Value":604.3705371,"Status":"참","Latitude":37.5171,"Longitude":126.8663},{"ID":"GS110020","District":"강서구","Value":604.1358931,"Status":"참","Latitude":37.5509,"Longitude":126.8497},{"ID":"JG140001","District":"중구","Value":603.755869,"Status":"참","Latitude":37.5636559,"Longitude":126.9975097},{"ID":"WF190723","District":"서초구","Value":603.6718758,"Status":"참","Latitude":37.4835,"Longitude":127.0322},{"ID":"EP040008","District":"은평구","Value":603.5306334,"Status":"참","Latitude":37.6024,"Longitude":126.9293},{"ID":"GB050002","District":"강북구","Value":602.6242009,"Status":"참","Latitude":37.6395,"Longitude":127.0255},{"ID":"YC120008","District":"양천구","Value":602.38739,"Status":"참","Latitude":37.5171,"Longitude":126.8663},{"ID":"SDM110011","District":"서대문구","Value":602.0745089,"Status":"참","Latitude":37.5790747,"Longitude":126.9367861},{"ID":"SC000063","District":"서초구","Value":602.0320217,"Status":"참","Latitude":37.4835,"Longitude":127.0322},{"ID":"GS030042","District":"강서구","Value":601.0953026,"Status":"참","Latitude":37.5509,"Longitude":126.8497},{"ID":"GB090004","District":"강북구","Value":598.6844614,"Status":"참","Latitude":37.6395,"Longitude":127.0255},{"ID":"GS010009","District":"강서구","Value":598.5748853,"Status":"참","Latitude":37.5509,"Longitude":126.8497},{"ID":"SC000021","District":"서초구","Value":598.4552207,"Status":"참","Latitude":37.4835,"Longitude":127.0322},{"ID":"WF181127","District":"노원구","Value":598.2733069,"Status":"참","Latitude":37.654,"Longitude":127.0567},{"ID":"SD000390","District":"성동구","Value":598.1300955,"Status":"참","Latitude":37.5635,"Longitude":127.0365},{"ID":"GA070038","District":"관악구","Value":597.5999557,"Status":"참","Latitude":37.4782,"Longitude":126.9518},{"ID":"WF171262","District":"동대문구","Value":597.5125074,"Status":"참","Latitude":37.5741982,"Longitude":127.0395092},{"ID":"WF120332","District":"중구","Value":597.4272523,"Status":"참","Latitude":37.5636559,"Longitude":126.9975097},{"ID":"GS150003","District":"강서구","Value":597.2330672,"Status":"참","Latitude":37.5509,"Longitude":126.8497},{"ID":"MP020053","District":"마포구","Value":597.2278306,"Status":"참","Latitude":37.566571,"Longitude":126.9015317},{"ID":"WF190202","District":"관악구","Value":596.2884939,"Status":"참","Latitude":37.4782,"Longitude":126.9518},{"ID":"WF120467","District":"중구","Value":595.9480384,"Status":"참","Latitude":37.5636559,"Longitude":126.9975097},{"ID":"EP010005","District":"은평구","Value":595.8087103,"Status":"참","Latitude":37.6024,"Longitude":126.9293},{"ID":"MP010022","District":"마포구","Value":595.670513,"Status":"참","Latitude":37.566571,"Longitude":126.9015317},{"ID":"SC000014","District":"서초구","Value":594.8781447,"Status":"참","Latitude":37.4835,"Longitude":127.0322},{"ID":"WF121822","District":"용산구","Value":594.8140815,"Status":"참","Latitude":37.5323,"Longitude":126.99},{"ID":"GN060049","District":"강남구","Value":594.4134321,"Status":"참","Latitude":37.5177,"Longitude":127.0473},{"ID":"WN003996","District":"성동구","Value":593.5093322,"Status":"참","Latitude":37.5635,"Longitude":127.0365},{"ID":"GN160004","District":"강남구","Value":593.2325126,"Status":"참","Latitude":37.5177,"Longitude":127.0473},{"ID":"WF200081","District":"중구","Value":593.004747,"Status":"참","Latitude":37.5636559,"Longitude":126.9975097},{"ID":"WF131742","District":"마포구","Value":592.8014734,"Status":"참","Latitude":37.566571,"Longitude":126.9015317},{"ID":"WF200029","District":"중구","Value":592.489458,"Status":"참","Latitude":37.5636559,"Longitude":126.9975097},{"ID":"WF190263","District":"광진구","Value":591.5428353,"Status":"참","Latitude":37.5384,"Longitude":127.0828},{"ID":"SC130002","District":"서초구","Value":591.35037,"Status":"참","Latitude":37.4835,"Longitude":127.0322},{"ID":"WF120216","District":"은평구","Value":591.0049809,"Status":"참","Latitude":37.6024,"Longitude":126.9293},{"ID":"YC080018","District":"양천구","Value":590.995294,"Status":"참","Latitude":37.5171,"Longitude":126.8663},{"ID":"GB130005","District":"강북구","Value":590.6110576,"Status":"참","Latitude":37.6395,"Longitude":127.0255},{"ID":"WF200039","District":"중구","Value":590.5232126,"Status":"참","Latitude":37.5636559,"Longitude":126.9975097},{"ID":"GB110007","District":"강북구","Value":590.4396503,"Status":"참","Latitude":37.6395,"Longitude":127.0255},{"ID":"WF190963","District":"용산구","Value":589.9781824,"Status":"참","Latitude":37.5323,"Longitude":126.99},{"ID":"YDP330003","District":"영등포구","Value":589.8098441,"Status":"참","Latitude":37.5262,"Longitude":126.8959},{"ID":"WF190548","District":"동작구","Value":589.2736498,"Status":"참","Latitude":37.5120999,"Longitude":126.9395},{"ID":"WF110107","District":"중구","Value":589.0819061,"Status":"참","Latitude":37.5636559,"Longitude":126.9975097},{"ID":"DDM000001","District":"동대문구","Value":589.0564039,"Status":"참","Latitude":37.5741982,"Longitude":127.0395092},{"ID":"EP070032","District":"은평구","Value":588.9779724,"Status":"참","Latitude":37.6024,"Longitude":126.9293},{"ID":"YC120016","District":"양천구","Value":588.8389215,"Status":"참","Latitude":37.5171,"Longitude":126.8663},{"ID":"GR030065","District":"구로구","Value":588.7723966,"Status":"참","Latitude":37.4951999,"Longitude":126.8877},{"ID":"YC170077","District":"양천구","Value":588.7274491,"Status":"참","Latitude":37.5171,"Longitude":126.8663},{"ID":"GJ100036","District":"광진구","Value":588.4863527,"Status":"참","Latitude":37.5384,"Longitude":127.0828},{"ID":"NW160046","District":"노원구","Value":588.1978148,"Status":"참","Latitude":37.654,"Longitude":127.0567},{"ID":"WF190330","District":"금천구","Value":587.6270984,"Status":"참","Latitude":37.4565,"Longitude":126.8954},{"ID":"NW010003","District":"노원구","Value":587.5911506,"Status":"참","Latitude":37.654,"Longitude":127.0567},{"ID":"YC160012","District":"양천구","Value":587.522422,"Status":"참","Latitude":37.5171,"Longitude":126.8663},{"ID":"SC000028","District":"서초구","Value":587.3603219,"Status":"참","Latitude":37.4835,"Longitude":127.0322},{"ID":"NW160039","District":"노원구","Value":586.9435824,"Status":"참","Latitude":37.654,"Longitude":127.0567},{"ID":"YS080002","District":"용산구","Value":586.8626437,"Status":"참","Latitude":37.5323,"Longitude":126.99},{"ID":"YC150023","District":"양천구","Value":585.2181659,"Status":"참","Latitude":37.5171,"Longitude":126.8663},{"ID":"WF162493","District":"중구","Value":584.9706023,"Status":"참","Latitude":37.5636559,"Longitude":126.9975097},{"ID":"WF120153","District":"서초구","Value":584.166435,"Status":"참","Latitude":37.4835,"Longitude":127.0322},{"ID":"WF110136","District":"중구","Value":584.0055555,"Status":"참","Latitude":37.5636559,"Longitude":126.9975097},{"ID":"NW040002","District":"노원구","Value":583.8372165,"Status":"참","Latitude":37.654,"Longitude":127.0567},{"ID":"WF171028","District":"중구","Value":583.6649753,"Status":"참","Latitude":37.5636559,"Longitude":126.9975097},{"ID":"WF181033","District":"성동구","Value":583.3787452,"Status":"참","Latitude":37.5635,"Longitude":127.0365},{"ID":"GJ060006","District":"광진구","Value":583.2977948,"Status":"참","Latitude":37.5384,"Longitude":127.0828},{"ID":"YC170002","District":"양천구","Value":583.2276578,"Status":"참","Latitude":37.5171,"Longitude":126.8663},{"ID":"WN000671","District":"도봉구","Value":583.0955984,"Status":"참","Latitude":37.6686,"Longitude":127.0466},{"ID":"WF171775","District":"금천구","Value":582.3774551,"Status":"참","Latitude":37.4565,"Longitude":126.8954},{"ID":"GB050006","District":"강북구","Value":582.2469777,"Status":"참","Latitude":37.6395,"Longitude":127.0255},{"ID":"SD000213","District":"성동구","Value":581.9795131,"Status":"참","Latitude":37.5635,"Longitude":127.0365},{"ID":"GD130017","District":"강동구","Value":581.6699507,"Status":"참","Latitude":37.53,"Longitude":127.1237},{"ID":"GN070089","District":"강남구","Value":581.4917862,"Status":"참","Latitude":37.5177,"Longitude":127.0473},{"ID":"GS180099","District":"강서구","Value":581.2709961,"Status":"참","Latitude":37.5509,"Longitude":126.8497},{"ID":"YS000037","District":"용산구","Value":581.2648657,"Status":"참","Latitude":37.5323,"Longitude":126.99},{"ID":"YC170074","District":"양천구","Value":581.23134,"Status":"참","Latitude":37.5171,"Longitude":126.8663},{"ID":"WF120254","District":"은평구","Value":580.9145635,"Status":"참","Latitude":37.6024,"Longitude":126.9293},{"ID":"GN070058","District":"강남구","Value":580.7030449,"Status":"참","Latitude":37.5177,"Longitude":127.0473},{"ID":"WN003826","District":"성동구","Value":580.6932683,"Status":"참","Latitude":37.5635,"Longitude":127.0365},{"ID":"WF120298","District":"중구","Value":580.6656756,"Status":"참","Latitude":37.5636559,"Longitude":126.9975097},{"ID":"YC060009","District":"양천구","Value":580.6490886,"Status":"참","Latitude":37.5171,"Longitude":126.8663},{"ID":"YC030003","District":"양천구","Value":579.8545009,"Status":"참","Latitude":37.5171,"Longitude":126.8663},{"ID":"WF121358","District":"동대문구","Value":579.299131,"Status":"참","Latitude":37.5741982,"Longitude":127.0395092},{"ID":"YC170060","District":"양천구","Value":579.0716336,"Status":"참","Latitude":37.5171,"Longitude":126.8663},{"ID":"YC170040","District":"양천구","Value":578.3770395,"Status":"참","Latitude":37.5171,"Longitude":126.8663},{"ID":"WF110057","District":"중구","Value":578.3523645,"Status":"참","Latitude":37.5636559,"Longitude":126.9975097},{"ID":"WF201319","District":"도봉구","Value":577.7767999,"Status":"참","Latitude":37.6686,"Longitude":127.0466},{"ID":"WF152541","District":"용산구","Value":577.6160637,"Status":"참","Latitude":37.5323,"Longitude":126.99},{"ID":"WF190766","District":"성북구","Value":577.5177309,"Status":"참","Latitude":37.59,"Longitude":127.0165},{"ID":"SP260082","District":"송파구","Value":577.4745404,"Status":"참","Latitude":37.5145,"Longitude":127.1058},{"ID":"YDP130001","District":"영등포구","Value":577.426944,"Status":"참","Latitude":37.5262,"Longitude":126.8959},{"ID":"YC170026","District":"양천구","Value":577.1772898,"Status":"참","Latitude":37.5171,"Longitude":126.8663},{"ID":"WF161261","District":"관악구","Value":576.9372073,"Status":"참","Latitude":37.4782,"Longitude":126.9518},{"ID":"WF200076","District":"중구","Value":576.8785717,"Status":"참","Latitude":37.5636559,"Longitude":126.9975097},{"ID":"DDM000039","District":"동대문구","Value":576.5744506,"Status":"참","Latitude":37.5741982,"Longitude":127.0395092},{"ID":"SD000013","District":"성동구","Value":576.1370637,"Status":"참","Latitude":37.5635,"Longitude":127.0365},{"ID":"NW010013","District":"노원구","Value":576.0111411,"Status":"참","Latitude":37.654,"Longitude":127.0567},{"ID":"WF131730","District":"마포구","Value":574.1201643,"Status":"참","Latitude":37.566571,"Longitude":126.9015317},{"ID":"WF190096","District":"강북구","Value":573.9697869,"Status":"참","Latitude":37.6395,"Longitude":127.0255},{"ID":"DBGURUCUS014","District":"도봉구","Value":573.8030117,"Status":"참","Latitude":37.6686,"Longitude":127.0466},{"ID":"DDM000007","District":"동대문구","Value":572.8915779,"Status":"참","Latitude":37.5741982,"Longitude":127.0395092},{"ID":"WN000705","District":"도봉구","Value":572.7588741,"Status":"참","Latitude":37.6686,"Longitude":127.0466},{"ID":"WN000709","District":"도봉구","Value":572.664569,"Status":"참","Latitude":37.6686,"Longitude":127.0466},{"ID":"WF190690","District":"서대문구","Value":572.6436246,"Status":"참","Latitude":37.5790747,"Longitude":126.9367861},{"ID":"WF200016","District":"중구","Value":572.2445711,"Status":"참","Latitude":37.5636559,"Longitude":126.9975097},{"ID":"JN020004","District":"중랑구","Value":571.6700767,"Status":"참","Latitude":37.6063,"Longitude":127.093},{"ID":"GD130012","District":"강동구","Value":571.5170723,"Status":"참","Latitude":37.53,"Longitude":127.1237},{"ID":"YC150005","District":"양천구","Value":571.128891,"Status":"참","Latitude":37.5171,"Longitude":126.8663},{"ID":"DB120003","District":"도봉구","Value":571.0591654,"Status":"참","Latitude":37.6686,"Longitude":127.0466},{"ID":"NW160070","District":"노원구","Value":570.7069908,"Status":"참","Latitude":37.654,"Longitude":127.0567},{"ID":"WF200059","District":"중구","Value":570.1439544,"Status":"참","Latitude":37.5636559,"Longitude":126.9975097},{"ID":"GB110023","District":"강북구","Value":569.8714542,"Status":"참","Latitude":37.6395,"Longitude":127.0255},{"ID":"DB090011","District":"도봉구","Value":569.5898425,"Status":"참","Latitude":37.6686,"Longitude":127.0466},{"ID":"WF171761","District":"금천구","Value":569.3491839,"Status":"참","Latitude":37.4565,"Longitude":126.8954},{"ID":"WF192029","District":"마포구","Value":568.6476414,"Status":"참","Latitude":37.566571,"Longitude":126.9015317},{"ID":"YC050018","District":"양천구","Value":568.4094719,"Status":"참","Latitude":37.5171,"Longitude":126.8663},{"ID":"EP030004","District":"은평구","Value":568.3647544,"Status":"참","Latitude":37.6024,"Longitude":126.9293},{"ID":"SD000186","District":"성동구","Value":568.3313446,"Status":"참","Latitude":37.5635,"Longitude":127.0365},{"ID":"WF200034","District":"중구","Value":568.1274363,"Status":"참","Latitude":37.5636559,"Longitude":126.9975097},{"ID":"WN003853","District":"성동구","Value":567.2490932,"Status":"참","Latitude":37.5635,"Longitude":127.0365},{"ID":"GS100031","District":"강서구","Value":567.1434456,"Status":"참","Latitude":37.5509,"Longitude":126.8497},{"ID":"YDP000038","District":"영등포구","Value":565.584134,"Status":"참","Latitude":37.5262,"Longitude":126.8959},{"ID":"WF120400","District":"중구","Value":565.336111,"Status":"참","Latitude":37.5636559,"Longitude":126.9975097},{"ID":"YS000023","District":"용산구","Value":565.290474,"Status":"참","Latitude":37.5323,"Longitude":126.99},{"ID":"WN003836","District":"성동구","Value":565.1411439,"Status":"참","Latitude":37.5635,"Longitude":127.0365},{"ID":"JG070001","District":"중구","Value":565.0955912,"Status":"참","Latitude":37.5636559,"Longitude":126.9975097},{"ID":"DDM000006","District":"동대문구","Value":564.4122974,"Status":"참","Latitude":37.5741982,"Longitude":127.0395092},{"ID":"NW160036","District":"노원구","Value":564.3250961,"Status":"참","Latitude":37.654,"Longitude":127.0567},{"ID":"WF191202","District":"마포구","Value":564.0691064,"Status":"참","Latitude":37.566571,"Longitude":126.9015317},{"ID":"YC050031","District":"양천구","Value":563.7674841,"Status":"참","Latitude":37.5171,"Longitude":126.8663},{"ID":"GA070081","District":"관악구","Value":563.5916705,"Status":"참","Latitude":37.4782,"Longitude":126.9518},{"ID":"GN070016","District":"강남구","Value":563.2313605,"Status":"참","Latitude":37.5177,"Longitude":127.0473},{"ID":"GS100023","District":"강서구","Value":562.8934754,"Status":"참","Latitude":37.5509,"Longitude":126.8497},{"ID":"WF172275","District":"도봉구","Value":562.1959564,"Status":"참","Latitude":37.6686,"Longitude":127.0466},{"ID":"GA070030","District":"관악구","Value":561.3915015,"Status":"참","Latitude":37.4782,"Longitude":126.9518},{"ID":"WF120404","District":"중구","Value":561.2590324,"Status":"참","Latitude":37.5636559,"Longitude":126.9975097},{"ID":"WF120458","District":"중구","Value":561.1517504,"Status":"참","Latitude":37.5636559,"Longitude":126.9975097},{"ID":"WF201520","District":"성동구","Value":561.0123271,"Status":"참","Latitude":37.5635,"Longitude":127.0365},{"ID":"GS100033","District":"강서구","Value":559.3162389,"Status":"참","Latitude":37.5509,"Longitude":126.8497},{"ID":"GS170043","District":"강서구","Value":559.0317615,"Status":"참","Latitude":37.5509,"Longitude":126.8497},{"ID":"GD130030","District":"강동구","Value":557.7333502,"Status":"참","Latitude":37.53,"Longitude":127.1237},{"ID":"WF190262","District":"광진구","Value":556.9666494,"Status":"참","Latitude":37.5384,"Longitude":127.0828},{"ID":"EP000042","District":"은평구","Value":556.8838925,"Status":"참","Latitude":37.6024,"Longitude":126.9293},{"ID":"WF190614","District":"동작구","Value":556.8647929,"Status":"참","Latitude":37.5120999,"Longitude":126.9395},{"ID":"WF181119","District":"노원구","Value":556.7628016,"Status":"참","Latitude":37.654,"Longitude":127.0567},{"ID":"YC170010","District":"양천구","Value":556.1436764,"Status":"참","Latitude":37.5171,"Longitude":126.8663},{"ID":"DDM000033","District":"동대문구","Value":556.0821389,"Status":"참","Latitude":37.5741982,"Longitude":127.0395092},{"ID":"GJ130009","District":"광진구","Value":555.9973568,"Status":"참","Latitude":37.5384,"Longitude":127.0828},{"ID":"GN010098","District":"강남구","Value":555.9214887,"Status":"참","Latitude":37.5177,"Longitude":127.0473},{"ID":"WF171422","District":"노원구","Value":555.8895965,"Status":"참","Latitude":37.654,"Longitude":127.0567},{"ID":"SD000076","District":"성동구","Value":555.6081983,"Status":"참","Latitude":37.5635,"Longitude":127.0365},{"ID":"GC040002","District":"금천구","Value":555.4141517,"Status":"참","Latitude":37.4565,"Longitude":126.8954},{"ID":"WF110199","District":"중구","Value":555.3362909,"Status":"참","Latitude":37.5636559,"Longitude":126.9975097},{"ID":"GB060001","District":"강북구","Value":555.1790525,"Status":"참","Latitude":37.6395,"Longitude":127.0255},{"ID":"SP260063","District":"송파구","Value":554.9775703,"Status":"참","Latitude":37.5145,"Longitude":127.1058},{"ID":"YDP200008","District":"영등포구","Value":554.6816713,"Status":"참","Latitude":37.5262,"Longitude":126.8959},{"ID":"WF190976","District":"은평구","Value":554.6668206,"Status":"참","Latitude":37.6024,"Longitude":126.9293},{"ID":"WF110102","District":"중구","Value":554.5444574,"Status":"참","Latitude":37.5636559,"Longitude":126.9975097},{"ID":"GD130015","District":"강동구","Value":554.4812508,"Status":"참","Latitude":37.53,"Longitude":127.1237},{"ID":"JG000042","District":"중구","Value":554.2622036,"Status":"참","Latitude":37.5636559,"Longitude":126.9975097},{"ID":"YS170005","District":"용산구","Value":554.2141463,"Status":"참","Latitude":37.5323,"Longitude":126.99},{"ID":"SB020009","District":"성북구","Value":553.7853745,"Status":"참","Latitude":37.59,"Longitude":127.0165},{"ID":"YC150019","District":"양천구","Value":553.7586558,"Status":"참","Latitude":37.5171,"Longitude":126.8663},{"ID":"YDP020001","District":"영등포구","Value":553.7162642,"Status":"참","Latitude":37.5262,"Longitude":126.8959},{"ID":"YDP000029","District":"영등포구","Value":553.3478408,"Status":"참","Latitude":37.5262,"Longitude":126.8959},{"ID":"GS100054","District":"강서구","Value":552.8446167,"Status":"참","Latitude":37.5509,"Longitude":126.8497},{"ID":"HT210100","District":"중구","Value":552.7276677,"Status":"참","Latitude":37.5636559,"Longitude":126.9975097},{"ID":"SD000429","District":"성동구","Value":552.5270231,"Status":"참","Latitude":37.5635,"Longitude":127.0365},{"ID":"YDP110001","District":"영등포구","Value":552.3560864,"Status":"참","Latitude":37.5262,"Longitude":126.8959},{"ID":"WF200089","District":"중구","Value":552.0339512,"Status":"참","Latitude":37.5636559,"Longitude":126.9975097},{"ID":"SD000446","District":"성동구","Value":551.7352464,"Status":"참","Latitude":37.5635,"Longitude":127.0365},{"ID":"WF181259","District":"금천구","Value":551.1207922,"Status":"참","Latitude":37.4565,"Longitude":126.8954},{"ID":"WF190507","District":"동대문구","Value":551.1126933,"Status":"참","Latitude":37.5741982,"Longitude":127.0395092},{"ID":"WN000658","District":"도봉구","Value":550.7898257,"Status":"참","Latitude":37.6686,"Longitude":127.0466},{"ID":"GB130019","District":"강북구","Value":550.7056429,"Status":"참","Latitude":37.6395,"Longitude":127.0255},{"ID":"MP010017","District":"마포구","Value":550.7039267,"Status":"참","Latitude":37.566571,"Longitude":126.9015317},{"ID":"YC020014","District":"양천구","Value":550.6379735,"Status":"참","Latitude":37.5171,"Longitude":126.8663},{"ID":"SB160005","District":"성북구","Value":550.0033351,"Status":"참","Latitude":37.59,"Longitude":127.0165},{"ID":"WF120263","District":"은평구","Value":549.8396721,"Status":"참","Latitude":37.6024,"Longitude":126.9293},{"ID":"WF120422","District":"중구","Value":549.6026251,"Status":"참","Latitude":37.5636559,"Longitude":126.9975097},{"ID":"SB020043","District":"성북구","Value":549.2945693,"Status":"참","Latitude":37.59,"Longitude":127.0165},{"ID":"YS000027","District":"용산구","Value":549.239656,"Status":"참","Latitude":37.5323,"Longitude":126.99},{"ID":"WF205110","District":"중구","Value":549.2172922,"Status":"참","Latitude":37.5636559,"Longitude":126.9975097},{"ID":"YC030009","District":"양천구","Value":548.9997142,"Status":"참","Latitude":37.5171,"Longitude":126.8663},{"ID":"YC170100","District":"양천구","Value":548.9821162,"Status":"참","Latitude":37.5171,"Longitude":126.8663},{"ID":"NW020010","District":"노원구","Value":548.8903998,"Status":"참","Latitude":37.654,"Longitude":127.0567},{"ID":"WF131726","District":"마포구","Value":548.6635847,"Status":"참","Latitude":37.566571,"Longitude":126.9015317},{"ID":"NW160032","District":"노원구","Value":548.5617074,"Status":"참","Latitude":37.654,"Longitude":127.0567},{"ID":"GS100018","District":"강서구","Value":548.0128413,"Status":"참","Latitude":37.5509,"Longitude":126.8497},{"ID":"SD000348","District":"성동구","Value":547.93227,"Status":"참","Latitude":37.5635,"Longitude":127.0365},{"ID":"WF171567","District":"마포구","Value":547.5226904,"Status":"참","Latitude":37.566571,"Longitude":126.9015317},{"ID":"WF190064","District":"강동구","Value":547.4008975,"Status":"참","Latitude":37.53,"Longitude":127.1237},{"ID":"GN070045","District":"강남구","Value":547.1326036,"Status":"참","Latitude":37.5177,"Longitude":127.0473},{"ID":"SD000195","District":"성동구","Value":547.0513179,"Status":"참","Latitude":37.5635,"Longitude":127.0365},{"ID":"GR030060","District":"구로구","Value":547.0256211,"Status":"참","Latitude":37.4951999,"Longitude":126.8877},{"ID":"GJ100016","District":"광진구","Value":546.2399514,"Status":"참","Latitude":37.5384,"Longitude":127.0828},{"ID":"MP010015","District":"마포구","Value":546.1875862,"Status":"참","Latitude":37.566571,"Longitude":126.9015317},{"ID":"GN170012","District":"강남구","Value":546.0291385,"Status":"참","Latitude":37.5177,"Longitude":127.0473},{"ID":"YDP000044","District":"영등포구","Value":545.9095445,"Status":"참","Latitude":37.5262,"Longitude":126.8959},{"ID":"SP260051","District":"송파구","Value":545.8310496,"Status":"참","Latitude":37.5145,"Longitude":127.1058},{"ID":"GA140003","District":"관악구","Value":545.7169703,"Status":"참","Latitude":37.4782,"Longitude":126.9518},{"ID":"GR130017","District":"구로구","Value":545.6130806,"Status":"참","Latitude":37.4951999,"Longitude":126.8877},